"Comunidad","Provincia","Municipio","Población","Latitud","Longitud"
"País Vasco","Araba/Álava","Alegría-Dulantzi",2971,42.84149,-2.513507
"País Vasco","Araba/Álava","Amurrio",10330,43.05265,-3.001022
"País Vasco","Araba/Álava","Aramaio",1381,43.054,-2.566
"País Vasco","Araba/Álava","Artziniega",1856,43.1222,-3.128209
"País Vasco","Araba/Álava","Armiñón",247,42.72305,-2.872574
"País Vasco","Araba/Álava","Asparrena",1611,42.89567,-2.321
"País Vasco","Araba/Álava","Ayala/Aiara",2942,43.08333,-3.063056
"País Vasco","Araba/Álava","Baños de Ebro/Mañueta",291,42.53029,-2.679144
"País Vasco","Araba/Álava","Barrundia",879,42.91669,-2.491817
"País Vasco","Araba/Álava","Berantevilla",459,42.68245,-2.860401
"País Vasco","Araba/Álava","Bernedo",546,42.62669,-2.497532
"País Vasco","Araba/Álava","Campezo/Kanpezu",1085,42.69194,-2.37
"País Vasco","Araba/Álava","Zigoitia",1844,42.9682,-2.7183
"País Vasco","Araba/Álava","Kripan",178,42.59167,-2.516079
"País Vasco","Araba/Álava","Kuartango",408,42.87139,-2.885556
"País Vasco","Araba/Álava","Elburgo/Burgelu",642,42.84956,-2.544762
"País Vasco","Araba/Álava","Elciego",955,42.51507,-2.618277
"País Vasco","Araba/Álava","Elvillar/Bilar",319,42.5705,-2.544915
"País Vasco","Araba/Álava","Iruraiz-Gauna",553,42.82207,-2.495043
"País Vasco","Araba/Álava","Labastida/Bastida",1565,42.59042,-2.793166
"País Vasco","Araba/Álava","Lagrán",170,42.6264,-2.58382
"País Vasco","Araba/Álava","Laguardia",1478,42.55428,-2.584237
"País Vasco","Araba/Álava","Lanciego/Lantziego",685,42.56262,-2.513204
"País Vasco","Araba/Álava","Lapuebla de Labarca",859,42.49467,-2.575167
"País Vasco","Araba/Álava","Leza",210,42.56607,-2.633635
"País Vasco","Araba/Álava","Laudio/Llodio",17982,43.14333,-2.962985
"País Vasco","Araba/Álava","Arraia-Maeztu",822,42.73981,-2.44598
"País Vasco","Araba/Álava","Navaridas",191,42.54517,-2.624532
"País Vasco","Araba/Álava","Okondo",1194,43.16222,-3.018889
"País Vasco","Araba/Álava","Oyón-Oion",3413,42.50614,-2.436965
"País Vasco","Araba/Álava","Peñacerrada-Urizaharra",302,42.6441,-2.713375
"País Vasco","Araba/Álava","Erriberagoitia/Ribera Alta",845,42.71577,-2.968477
"País Vasco","Araba/Álava","Añana",142,42.80235,-2.982607
"País Vasco","Araba/Álava","Samaniego",290,42.56983,-2.680185
"País Vasco","Araba/Álava","San Millán/Donemiliaga",720,42.87472,-2.376111
"País Vasco","Araba/Álava","Urkabustaiz",1462,42.97194,-2.922222
"País Vasco","Araba/Álava","Valdegovía/Gaubea",1072,42.85,-3.1
"País Vasco","Araba/Álava","Harana/Valle de Arana",214,42.75673,-2.321858
"País Vasco","Araba/Álava","Villabuena de Álava/Eskuernaga",290,42.54872,-2.665456
"País Vasco","Araba/Álava","Vitoria-Gasteiz",257968,42.84641,-2.667893
"País Vasco","Araba/Álava","Yécora/Iekora",265,42.5693,-2.470064
"País Vasco","Araba/Álava","Zalduondo",194,42.88563,-2.347254
"País Vasco","Araba/Álava","Zambrana",442,42.65998,-2.879353
"País Vasco","Araba/Álava","Zuia",2372,42.98167,-2.844
"País Vasco","Araba/Álava","Iruña Oka/Iruña de Oca",3625,42.81917,-2.807778
"País Vasco","Araba/Álava","Lantarón",926,42.75667,-2.987556
"Castilla La Mancha","Albacete","Abengibre",759,39.20999,-1.544182
"Castilla La Mancha","Albacete","Alatoz",497,39.09464,-1.361155
"Castilla La Mancha","Albacete","Albacete",174137,38.99765,-1.86007
"Castilla La Mancha","Albacete","Albatana",663,38.56977,-1.524207
"Castilla La Mancha","Albacete","Alborea",676,39.27951,-1.39587
"Castilla La Mancha","Albacete","Alcadozo",641,38.64877,-1.981464
"Castilla La Mancha","Albacete","Alcalá del Júcar",1117,39.19346,-1.429671
"Castilla La Mancha","Albacete","Alcaraz",1304,38.66966,-2.492647
"Castilla La Mancha","Albacete","Almansa",24281,38.86941,-1.097517
"Castilla La Mancha","Albacete","Alpera",2260,38.95939,-1.231247
"Castilla La Mancha","Albacete","Ayna",608,38.55318,-2.070846
"Castilla La Mancha","Albacete","Balazote",2379,38.88408,-2.150826
"Castilla La Mancha","Albacete","Balsa de Ves",124,39.26442,-1.195344
"Castilla La Mancha","Albacete","El Ballestero",413,38.84107,-2.455432
"Castilla La Mancha","Albacete","Barrax",1864,39.04573,-2.200169
"Castilla La Mancha","Albacete","Bienservida",552,38.51517,-2.611526
"Castilla La Mancha","Albacete","Bogarra",748,38.58138,-2.214221
"Castilla La Mancha","Albacete","Bonete",970,38.8693,-1.348517
"Castilla La Mancha","Albacete","El Bonillo",2624,38.95073,-2.539598
"Castilla La Mancha","Albacete","Carcelén",487,39.10189,-1.308891
"Castilla La Mancha","Albacete","Casas de Juan Núñez",1361,39.10187,-1.557571
"Castilla La Mancha","Albacete","Casas de Lázaro",311,38.77105,-2.241862
"Castilla La Mancha","Albacete","Casas de Ves",548,39.2584,-1.335103
"Castilla La Mancha","Albacete","Casas-Ibáñez",4591,39.28518,-1.47113
"Castilla La Mancha","Albacete","Caudete",10249,38.70274,-0.9915481
"Castilla La Mancha","Albacete","Cenizate",1160,39.3043,-1.661456
"Castilla La Mancha","Albacete","Corral-Rubio",302,38.83509,-1.460988
"Castilla La Mancha","Albacete","Cotillas",126,38.4311,-2.506876
"Castilla La Mancha","Albacete","Chinchilla de Monte-Aragón",4626,38.91862,-1.722758
"Castilla La Mancha","Albacete","Elche de la Sierra",3596,38.44759,-2.048343
"Castilla La Mancha","Albacete","Férez",605,38.35604,-2.010168
"Castilla La Mancha","Albacete","Fuensanta",287,39.24641,-2.065142
"Castilla La Mancha","Albacete","Fuente-Álamo",2417,38.69322,-1.431773
"Castilla La Mancha","Albacete","Fuentealbilla",1799,39.26686,-1.549186
"Castilla La Mancha","Albacete","La Gineta",2635,39.11287,-1.996003
"Castilla La Mancha","Albacete","Golosalvo",85,39.23994,-1.636626
"Castilla La Mancha","Albacete","Hellín",30812,38.51216,-1.70331
"Castilla La Mancha","Albacete","La Herrera",303,38.96182,-2.126546
"Castilla La Mancha","Albacete","Higueruela",1142,38.96424,-1.445101
"Castilla La Mancha","Albacete","Hoya-Gonzalo",593,38.96017,-1.554348
"Castilla La Mancha","Albacete","Jorquera",358,39.17475,-1.521044
"Castilla La Mancha","Albacete","Letur",922,38.36555,-2.101964
"Castilla La Mancha","Albacete","Lezuza",1305,38.94902,-2.353775
"Castilla La Mancha","Albacete","Liétor",1063,38.5429,-1.952878
"Castilla La Mancha","Albacete","Madrigueras",4658,39.23705,-1.800167
"Castilla La Mancha","Albacete","Mahora",1465,39.21283,-1.725332
"Castilla La Mancha","Albacete","Masegoso",116,38.71841,-2.315899
"Castilla La Mancha","Albacete","Minaya",1387,39.27149,-2.319947
"Castilla La Mancha","Albacete","Molinicos",785,38.46796,-2.237843
"Castilla La Mancha","Albacete","Montalvos",81,39.16689,-2.027694
"Castilla La Mancha","Albacete","Montealegre del Castillo",2038,38.78697,-1.325303
"Castilla La Mancha","Albacete","Motilleja",668,39.1806,-1.791874
"Castilla La Mancha","Albacete","Munera",3395,39.03984,-2.482528
"Castilla La Mancha","Albacete","Navas de Jorquera",533,39.28074,-1.71904
"Castilla La Mancha","Albacete","Nerpio",1150,38.14801,-2.302496
"Castilla La Mancha","Albacete","Ontur",1890,38.6147,-1.498491
"Castilla La Mancha","Albacete","Ossa de Montiel",2216,38.96335,-2.745406
"Castilla La Mancha","Albacete","Paterna del Madera",339,38.59725,-2.346145
"Castilla La Mancha","Albacete","Peñascosa",328,38.67118,-2.410708
"Castilla La Mancha","Albacete","Peñas de San Pedro",1466,38.72722,-2.004189
"Castilla La Mancha","Albacete","Pétrola",665,38.82572,-1.557605
"Castilla La Mancha","Albacete","Povedilla",392,38.70169,-2.603873
"Castilla La Mancha","Albacete","Pozohondo",1553,38.72114,-1.911805
"Castilla La Mancha","Albacete","Pozo-Lorente",386,39.07682,-1.506532
"Castilla La Mancha","Albacete","Pozuelo",467,38.80923,-2.100707
"Castilla La Mancha","Albacete","La Recueja",221,39.17558,-1.490451
"Castilla La Mancha","Albacete","Riópar",1353,38.49912,-2.41725
"Castilla La Mancha","Albacete","Robledo",393,38.75912,-2.448879
"Castilla La Mancha","Albacete","La Roda",15610,39.0013,-1.868604
"Castilla La Mancha","Albacete","Salobre",442,38.59158,-2.551266
"Castilla La Mancha","Albacete","San Pedro",1185,38.82642,-2.186141
"Castilla La Mancha","Albacete","Socovos",1662,38.33348,-1.983432
"Castilla La Mancha","Albacete","Tarazona de la Mancha",6117,39.26531,-1.912836
"Castilla La Mancha","Albacete","Tobarra",7947,38.58844,-1.693783
"Castilla La Mancha","Albacete","Valdeganga",1961,39.13523,-1.677004
"Castilla La Mancha","Albacete","Vianos",320,38.63218,-2.501559
"Castilla La Mancha","Albacete","Villa de Ves",55,39.22327,-1.26016
"Castilla La Mancha","Albacete","Villalgordo del Júcar",1128,39.29626,-2.06341
"Castilla La Mancha","Albacete","Villamalea",3973,39.36189,-1.599296
"Castilla La Mancha","Albacete","Villapalacios",562,38.5746,-2.635532
"Castilla La Mancha","Albacete","Villarrobledo",25262,39.26726,-2.607643
"Castilla La Mancha","Albacete","Villatoya",113,39.33326,-1.340224
"Castilla La Mancha","Albacete","Villavaliente",201,39.12596,-1.458606
"Castilla La Mancha","Albacete","Villaverde de Guadalimar",310,38.4555,-2.517869
"Castilla La Mancha","Albacete","Viveros",305,38.7733,-2.576014
"Castilla La Mancha","Albacete","Yeste",2509,38.36583,-2.318711
"Castilla La Mancha","Albacete","Pozo Cañada",2692,38.80128,-1.736837
"Valencia","Alicante/Alacant","Agost",5107,38.44117,-0.6395459
"Valencia","Alicante/Alacant","Agres",610,38.77988,-0.5156772
"Valencia","Alicante/Alacant","Aigües",1189,38.49932,-0.3627366
"Valencia","Alicante/Alacant","Albatera",13296,38.1806,-0.8696246
"Valencia","Alicante/Alacant","Alcalalí",1406,38.75568,-0.046652
"Valencia","Alicante/Alacant","Alcoleja",186,38.67542,-0.3323183
"Valencia","Alicante/Alacant","Alfafara",413,38.77266,-0.5552129
"Valencia","Alicante/Alacant","l' Alfàs del Pi",20160,38.58055,-0.1032094
"Valencia","Alicante/Alacant","Algorfa",3684,38.08587,-0.7957607
"Valencia","Alicante/Alacant","Algueña",1342,38.33886,-1.003234
"Valencia","Alicante/Alacant","Almoradí",22464,38.10963,-0.7920032
"Valencia","Alicante/Alacant","Almudaina",118,38.76115,-0.35386
"Valencia","Alicante/Alacant","l' Alqueria d'Asnar",519,38.77235,-0.4256638
"Valencia","Alicante/Alacant","Altea",23963,38.60032,-0.0491708
"Valencia","Alicante/Alacant","Aspe",21969,38.34857,-0.7694142
"Valencia","Alicante/Alacant","Balones",131,38.73683,-0.3420584
"Valencia","Alicante/Alacant","Banyeres de Mariola",7307,38.71685,-0.6558753
"Valencia","Alicante/Alacant","Benasau",171,38.69114,-0.3437617
"Valencia","Alicante/Alacant","Beneixama",1679,38.69995,-0.7661394
"Valencia","Alicante/Alacant","Benejúzar",5697,38.07839,-0.8384452
"Valencia","Alicante/Alacant","Benferri",2053,38.14063,-0.9632033
"Valencia","Alicante/Alacant","Beniarbeig",2384,38.82312,-0.0020653
"Valencia","Alicante/Alacant","Beniarrés",1096,38.81952,-0.3782794
"Valencia","Alicante/Alacant","Benigembla",559,38.75606,-0.1102239
"Valencia","Alicante/Alacant","Benidoleig",1219,38.79387,-0.0281963
"Valencia","Alicante/Alacant","Benidorm",74663,38.53704,-0.1290771
"Valencia","Alicante/Alacant","Benifallim",116,38.66279,-0.4003207
"Valencia","Alicante/Alacant","Benifato",144,38.67406,-0.2300378
"Valencia","Alicante/Alacant","Benijófar",3471,38.07811,-0.73795
"Valencia","Alicante/Alacant","Benilloba",747,38.70023,-0.3904273
"Valencia","Alicante/Alacant","Benillup",109,38.75348,-0.3789057
"Valencia","Alicante/Alacant","Benimantell",548,38.67443,-0.207443
"Valencia","Alicante/Alacant","Benimarfull",447,38.7751,-0.3934855
"Valencia","Alicante/Alacant","Benimassot",96,38.74907,-0.2923697
"Valencia","Alicante/Alacant","Benimeli",453,38.82294,-0.0417273
"Valencia","Alicante/Alacant","Benissa",12317,38.71623,0.0533722
"Valencia","Alicante/Alacant","Biar",3634,38.6297,-0.7654974
"Valencia","Alicante/Alacant","Bigastro",7431,38.06304,-0.8955043
"Valencia","Alicante/Alacant","Bolulla",486,38.67622,-0.1117929
"Valencia","Alicante/Alacant","Busot",3629,38.48483,-0.4172711
"Valencia","Alicante/Alacant","Callosa de Segura",19658,38.12413,-0.8784829
"Valencia","Alicante/Alacant","el Campello",30600,38.42892,-0.3978871
"Valencia","Alicante/Alacant","Cañada",1225,38.67524,-0.8098581
"Valencia","Alicante/Alacant","Castalla",11622,38.59519,-0.6722506
"Valencia","Alicante/Alacant","Castell de Castells",444,38.75242,-0.1748384
"Valencia","Alicante/Alacant","Catral",9423,38.16095,-0.8014995
"Valencia","Alicante/Alacant","Cocentaina",11411,38.74228,-0.4384323
"Valencia","Alicante/Alacant","Confrides",296,38.68329,-0.2685593
"Valencia","Alicante/Alacant","Cox",7622,38.1416,-0.8870501
"Valencia","Alicante/Alacant","Crevillent",30585,38.24703,-0.803492
"Valencia","Alicante/Alacant","Quatretondeta",134,38.72365,-0.3159135
"Valencia","Alicante/Alacant","Daya Nueva",1832,38.11316,-0.7592378
"Valencia","Alicante/Alacant","Daya Vieja",657,38.10484,-0.7387287
"Valencia","Alicante/Alacant","Dénia",46942,38.84043,0.1085751
"Valencia","Alicante/Alacant","Dolores",8102,38.14058,-0.7692993
"Valencia","Alicante/Alacant","Elda",53818,38.47803,-0.7904639
"Valencia","Alicante/Alacant","Famorca",44,38.73206,-0.2463927
"Valencia","Alicante/Alacant","Finestrat",9352,38.56909,-0.2107335
"Valencia","Alicante/Alacant","Formentera del Segura",4749,38.08562,-0.7453506
"Valencia","Alicante/Alacant","Gata de Gorgos",6659,38.77425,0.0812124
"Valencia","Alicante/Alacant","Gaianes",553,38.81155,-0.4103162
"Valencia","Alicante/Alacant","Gorga",284,38.72056,-0.3560984
"Valencia","Alicante/Alacant","Granja de Rocamora",2739,38.15253,-0.8909073
"Valencia","Alicante/Alacant","el Castell de Guadalest",282,38.67644,-0.198618
"Valencia","Alicante/Alacant","Guardamar del Segura",18111,38.08615,-0.651254
"Valencia","Alicante/Alacant","el/Hondón de las Nieves Fondó de les Neus",2696,38.30504,-0.9341582
"Valencia","Alicante/Alacant","Hondón de los Frailes",1310,38.27319,-0.9276314
"Valencia","Alicante/Alacant","Ibi",24210,38.62551,-0.5713521
"Valencia","Alicante/Alacant","Jacarilla",2122,38.06133,-0.8686115
"Valencia","Alicante/Alacant","Xaló",3042,38.73989,-0.0120761
"Valencia","Alicante/Alacant","Llíber",905,38.74273,0.0063282
"Valencia","Alicante/Alacant","Millena",249,38.73058,-0.3638289
"Valencia","Alicante/Alacant","Monforte del Cid",8967,38.37923,-0.7292369
"Valencia","Alicante/Alacant","Mutxamel",27761,38.41235,-0.4432408
"Valencia","Alicante/Alacant","Murla",585,38.76031,-0.0829431
"Valencia","Alicante/Alacant","Muro de Alcoy",9345,38.78075,-0.4402698
"Valencia","Alicante/Alacant","Novelda",26213,38.3853,-0.7653857
"Valencia","Alicante/Alacant","la Nucia",18783,38.61438,-0.1257095
"Valencia","Alicante/Alacant","Ondara",7522,38.82607,0.0159034
"Valencia","Alicante/Alacant","Onil",7959,38.62606,-0.6731591
"Valencia","Alicante/Alacant","Orba",2387,38.78033,-0.0637978
"Valencia","Alicante/Alacant","Orxeta",879,38.5636,-0.2619973
"Valencia","Alicante/Alacant","Orihuela",83720,38.08395,-0.9447829
"Valencia","Alicante/Alacant","Parcent",1021,38.74553,-0.0661097
"Valencia","Alicante/Alacant","Pedreguer",8687,38.79388,0.0345502
"Valencia","Alicante/Alacant","Pego",10632,38.84324,-0.1175528
"Valencia","Alicante/Alacant","Penàguila",293,38.67942,-0.3590004
"Valencia","Alicante/Alacant","Petrer",34076,38.47744,-0.7742523
"Valencia","Alicante/Alacant","el/Pinoso Pinós",8407,38.40112,-1.041577
"Valencia","Alicante/Alacant","Planes",696,38.7855,-0.344533
"Valencia","Alicante/Alacant","Polop",5650,38.62263,-0.1259112
"Valencia","Alicante/Alacant","Rafal",4900,38.10402,-0.8499723
"Valencia","Alicante/Alacant","Redován",8285,38.11617,-0.9107296
"Valencia","Alicante/Alacant","Relleu",1288,38.58733,-0.3110441
"Valencia","Alicante/Alacant","Rojales",17162,38.08833,-0.7242546
"Valencia","Alicante/Alacant","la Romana",2672,38.38433,-0.9050398
"Valencia","Alicante/Alacant","Sagra",441,38.81134,-0.0657266
"Valencia","Alicante/Alacant","Salinas",1775,38.51891,-0.9121291
"Valencia","Alicante/Alacant","Sanet y Negrals",722,38.81991,-0.0345811
"Valencia","Alicante/Alacant","San Fulgencio",9433,38.11422,-0.7179557
"Valencia","Alicante/Alacant","Sant Joan d'Alacant",25918,38.39817,-0.4345329
"Valencia","Alicante/Alacant","San Miguel de Salinas",6976,37.97993,-0.7892857
"Valencia","Alicante/Alacant","Santa Pola",38556,38.1923,-0.5552066
"Valencia","Alicante/Alacant","Sax",10172,38.53757,-0.8180652
"Valencia","Alicante/Alacant","Sella",604,38.60862,-0.2730576
"Valencia","Alicante/Alacant","Senija",696,38.72786,0.0405763
"Valencia","Alicante/Alacant","Tàrbena",634,38.69572,-0.1037597
"Valencia","Alicante/Alacant","Teulada",12834,38.72881,0.1035751
"Valencia","Alicante/Alacant","Tibi",1803,38.52938,-0.5830948
"Valencia","Alicante/Alacant","Tollos",38,38.75664,-0.2747656
"Valencia","Alicante/Alacant","Tormos",328,38.80195,-0.0721342
"Valencia","Alicante/Alacant","Torrevieja",94803,37.97747,-0.6832271
"Valencia","Alicante/Alacant","la Vall d'Alcalà",175,38.79445,-0.2527778
"Valencia","Alicante/Alacant","la Vall d'Ebo",230,38.80732,-0.1570321
"Valencia","Alicante/Alacant","la Vall de Laguar",903,38.77628,-0.1310217
"Valencia","Alicante/Alacant","el Verger",5272,38.33109,-0.5109846
"Valencia","Alicante/Alacant","Villena",34385,38.63634,-0.8661389
"Valencia","Alicante/Alacant","els Poblets",2684,38.85391,0.018325
"Valencia","Alicante/Alacant","Pilar de la Horadada",23844,37.86538,-0.7925081
"Valencia","Alicante/Alacant","Los Montesinos",5682,38.02732,-0.743438
"Valencia","Alicante/Alacant","San Isidro",2312,38.1702,-0.8401969
"Andalucía","Almería","Abla",1272,37.14114,-2.780104
"Andalucía","Almería","Abrucena",1235,37.13305,-2.797098
"Andalucía","Almería","Adra",25515,36.74807,-3.022522
"Andalucía","Almería","Alboloduy",585,37.03319,-2.62175
"Andalucía","Almería","Albox",12408,37.38979,-2.147483
"Andalucía","Almería","Alcolea",829,36.97449,-2.961038
"Andalucía","Almería","Alcóntar",557,37.33585,-2.596944
"Andalucía","Almería","Alcudia de Monteagud",128,37.23598,-2.266174
"Andalucía","Almería","Alhabia",725,36.9893,-2.587667
"Andalucía","Almería","Alhama de Almería",3878,36.95742,-2.570075
"Andalucía","Almería","Alicún",215,36.9663,-2.601994
"Andalucía","Almería","Almería",202675,36.84016,-2.467922
"Andalucía","Almería","Almócita",210,37.00236,-2.790071
"Andalucía","Almería","Alsodux",138,37.002,-2.594579
"Andalucía","Almería","Antas",3450,37.24516,-1.917543
"Andalucía","Almería","Arboleas",4319,37.35025,-2.074867
"Andalucía","Almería","Armuña de Almanzora",331,37.34969,-2.411396
"Andalucía","Almería","Bacares",239,37.26083,-2.454761
"Andalucía","Almería","Bayárcal",296,37.03116,-2.996469
"Andalucía","Almería","Bayarque",224,37.33091,-2.43566
"Andalucía","Almería","Bédar",976,37.18964,-1.981898
"Andalucía","Almería","Beires",148,37.012,-2.790928
"Andalucía","Almería","Benahadux",4808,36.92587,-2.455683
"Andalucía","Almería","Benitagla",60,37.23124,-2.239107
"Andalucía","Almería","Benizalón",252,37.21175,-2.241685
"Andalucía","Almería","Bentarique",227,36.98652,-2.61942
"Andalucía","Almería","Berja",12939,36.84644,-2.949425
"Andalucía","Almería","Canjáyar",1134,37.00973,-2.739681
"Andalucía","Almería","Cantoria",3569,37.35259,-2.193626
"Andalucía","Almería","Carboneras",8441,36.99659,-1.895012
"Andalucía","Almería","Castro de Filabres",101,37.18464,-2.439524
"Andalucía","Almería","Cóbdar",190,37.26199,-2.210223
"Andalucía","Almería","Cuevas del Almanzora",15246,37.29709,-1.881476
"Andalucía","Almería","Chercos",303,37.26633,-2.257897
"Andalucía","Almería","Chirivel",1567,37.5956,-2.264839
"Andalucía","Almería","Dalías",4169,36.82121,-2.870697
"Andalucía","Almería","Enix",598,36.87704,-2.602107
"Andalucía","Almería","Felix",770,36.86892,-2.657921
"Andalucía","Almería","Fines",2286,37.35888,-2.262964
"Andalucía","Almería","Fiñana",1984,37.17101,-2.840678
"Andalucía","Almería","Fondón",1133,36.97942,-2.858356
"Andalucía","Almería","Gádor",3067,36.95393,-2.492936
"Andalucía","Almería","Los Gallardos",3071,37.16948,-1.940099
"Andalucía","Almería","Garrucha",10603,37.17925,-1.821901
"Andalucía","Almería","Gérgal",1191,37.1207,-2.538305
"Andalucía","Almería","Huécija",537,36.96788,-2.611436
"Andalucía","Almería","Huércal de Almería",18584,36.88415,-2.435978
"Andalucía","Almería","Huércal-Overa",20609,37.39063,-1.943684
"Andalucía","Almería","Instinción",498,36.99316,-2.659945
"Andalucía","Almería","Laroya",209,37.29667,-2.329601
"Andalucía","Almería","Láujar de Andarax",1658,36.99384,-2.88922
"Andalucía","Almería","Líjar",393,37.29527,-2.219928
"Andalucía","Almería","Lubrín",1428,37.21585,-2.067055
"Andalucía","Almería","Lucainena de las Torres",714,37.04179,-2.200706
"Andalucía","Almería","Lúcar",825,37.39965,-2.427074
"Andalucía","Almería","Macael",5428,37.33229,-2.304892
"Andalucía","Almería","María",1195,37.7111,-2.165795
"Andalucía","Almería","Mojácar",7517,37.13995,-1.851328
"Andalucía","Almería","Nacimiento",501,37.10497,-2.64774
"Andalucía","Almería","Níjar",33076,36.96576,-2.20651
"Andalucía","Almería","Ohanes",547,37.03723,-2.745168
"Andalucía","Almería","Olula de Castro",181,37.17611,-2.476297
"Andalucía","Almería","Olula del Río",6429,37.35212,-2.298121
"Andalucía","Almería","Oria",2199,37.48503,-2.295018
"Andalucía","Almería","Padules",440,36.99884,-2.773482
"Andalucía","Almería","Partaloa",875,37.40604,-2.226434
"Andalucía","Almería","Paterna del Río",396,37.02088,-2.953087
"Andalucía","Almería","Pechina",4463,36.91667,-2.440625
"Andalucía","Almería","Pulpí",11906,37.41183,-1.745502
"Andalucía","Almería","Purchena",1533,37.34855,-2.36155
"Andalucía","Almería","Rágol",298,36.99564,-2.680989
"Andalucía","Almería","Rioja",1589,36.94406,-2.462424
"Andalucía","Almería","Roquetas de Mar",109204,36.76427,-2.614935
"Andalucía","Almería","Santa Cruz de Marchena",245,37.0172,-2.603768
"Andalucía","Almería","Santa Fe de Mondújar",494,36.97506,-2.530279
"Andalucía","Almería","Senés",278,37.20457,-2.347544
"Andalucía","Almería","Serón",2133,37.34361,-2.508077
"Andalucía","Almería","Sierro",376,37.32348,-2.398526
"Andalucía","Almería","Somontín",524,37.39139,-2.389127
"Andalucía","Almería","Sorbas",2525,37.09841,-2.126351
"Andalucía","Almería","Suflí",231,37.3382,-2.389523
"Andalucía","Almería","Tabernas",4097,37.04945,-2.392681
"Andalucía","Almería","Taberno",962,37.46729,-2.076205
"Andalucía","Almería","Tahal",375,37.22803,-2.28497
"Andalucía","Almería","Terque",384,36.98359,-2.597233
"Andalucía","Almería","Tíjola",3549,37.34551,-2.439434
"Andalucía","Almería","Turre",4209,37.15225,-1.894899
"Andalucía","Almería","Turrillas",268,37.03019,-2.264096
"Andalucía","Almería","Uleila del Campo",816,37.18548,-2.203801
"Andalucía","Almería","Urrácal",350,37.39732,-2.36507
"Andalucía","Almería","Velefique",246,37.19375,-2.403687
"Andalucía","Almería","Vélez-Blanco",1933,37.69095,-2.095682
"Andalucía","Almería","Vélez-Rubio",6613,37.64802,-2.074232
"Andalucía","Almería","Vera",19488,37.24686,-1.868238
"Andalucía","Almería","Viator",6271,36.88963,-2.426541
"Andalucía","Almería","Vícar",28835,36.83145,-2.642515
"Andalucía","Almería","Zurgena",2990,37.34265,-2.039607
"Andalucía","Almería","Las Tres Villas",574,37.13334,-2.7
"Andalucía","Almería","El Ejido",90135,36.77506,-2.812738
"Andalucía","Almería","La Mojonera",8677,36.75254,-2.688159
"Castilla León","Ávila","Adanero",208,40.94591,-4.606659
"Castilla León","Ávila","La Adrada",2796,40.29935,-4.634857
"Castilla León","Ávila","Albornos",175,40.83842,-4.881355
"Castilla León","Ávila","Aldeanueva de Santa Cruz",102,40.38176,-5.419435
"Castilla León","Ávila","Aldeaseca",203,41.04952,-4.817433
"Castilla León","Ávila","La Aldehuela",143,40.79458,-4.763939
"Castilla León","Ávila","Amavida",133,40.57338,-5.066842
"Castilla León","Ávila","El Arenal",978,40.26487,-5.087197
"Castilla León","Ávila","Arenas de San Pedro",6438,40.20872,-5.091141
"Castilla León","Ávila","Arevalillo",58,40.58731,-5.370576
"Castilla León","Ávila","Arévalo",7830,41.06443,-4.721681
"Castilla León","Ávila","Aveinte",73,40.78237,-4.837343
"Castilla León","Ávila","Avellaneda",23,40.38853,-5.388019
"Castilla León","Ávila","Ávila",58111,40.65642,-4.700323
"Castilla León","Ávila","El Barco de Ávila",2297,40.35711,-5.523521
"Castilla León","Ávila","El Barraco",2027,40.47881,-4.638284
"Castilla León","Ávila","Barromán",175,41.06509,-4.931392
"Castilla León","Ávila","Becedas",151,40.40503,-5.634871
"Castilla León","Ávila","Becedillas",69,40.53734,-5.324924
"Castilla León","Ávila","Bercial de Zapardiel",173,41.04642,-4.969301
"Castilla León","Ávila","Las Berlanas",323,40.80299,-4.760686
"Castilla León","Ávila","Bernuy-Zapardiel",84,40.97598,-4.943945
"Castilla León","Ávila","Berrocalejo de Aragona",56,40.69409,-4.594394
"Castilla León","Ávila","Blascomillán",170,40.80138,-5.088691
"Castilla León","Ávila","Blasconuño de Matacabras",14,41.1234,-4.990178
"Castilla León","Ávila","Blascosancho",100,40.87781,-4.635879
"Castilla León","Ávila","El Bohodón",110,40.91633,-4.730068
"Castilla León","Ávila","Bohoyo",214,40.31496,-5.441185
"Castilla León","Ávila","Bonilla de la Sierra",163,40.53089,-5.264956
"Castilla León","Ávila","Brabos",35,40.77847,-4.937897
"Castilla León","Ávila","Bularros",55,40.72449,-4.865047
"Castilla León","Ávila","Burgohondo",1249,40.41368,-4.786215
"Castilla León","Ávila","Cabezas de Alambre",153,40.9404,-4.842389
"Castilla León","Ávila","Cabezas del Pozo",82,41.00153,-4.955734
"Castilla León","Ávila","Cabezas del Villar",224,40.71527,-5.209755
"Castilla León","Ávila","Cabizuela",88,40.90104,-4.800335
"Castilla León","Ávila","Canales",35,41.00328,-4.900349
"Castilla León","Ávila","Candeleda",5031,40.15509,-5.239784
"Castilla León","Ávila","Cantiveros",99,40.9527,-4.954445
"Castilla León","Ávila","Cardeñosa",419,40.74177,-4.745263
"Castilla León","Ávila","La Carrera",160,40.34768,-5.554624
"Castilla León","Ávila","Casas del Puerto",83,40.52906,-5.198162
"Castilla León","Ávila","Casasola",63,40.66874,-4.826726
"Castilla León","Ávila","Casavieja",1394,40.28105,-4.766778
"Castilla León","Ávila","Casillas",669,40.32428,-4.57237
"Castilla León","Ávila","Castellanos de Zapardiel",113,41.08524,-4.909803
"Castilla León","Ávila","Cebreros",3239,40.45507,-4.464714
"Castilla León","Ávila","Cepeda la Mora",66,40.45761,-5.048178
"Castilla León","Ávila","Cillán",79,40.70498,-4.978228
"Castilla León","Ávila","Cisla",102,40.96485,-5.012189
"Castilla León","Ávila","La Colilla",375,40.6473,-4.766521
"Castilla León","Ávila","Collado de Contreras",145,40.88665,-4.927863
"Castilla León","Ávila","Collado del Mirón",20,40.5528,-5.353886
"Castilla León","Ávila","Constanzana",99,40.93854,-4.874399
"Castilla León","Ávila","Crespos",482,40.87341,-4.969728
"Castilla León","Ávila","Cuevas del Valle",517,40.29244,-5.010546
"Castilla León","Ávila","Chamartín",62,40.70156,-4.958119
"Castilla León","Ávila","Donjimeno",72,40.95966,-4.845067
"Castilla León","Ávila","Donvidas",36,41.08922,-4.807941
"Castilla León","Ávila","Espinosa de los Caballeros",97,41.00935,-4.650817
"Castilla León","Ávila","Flores de Ávila",270,40.93462,-5.078152
"Castilla León","Ávila","Fontiveros",725,40.9306,-4.967885
"Castilla León","Ávila","Fresnedilla",97,40.23157,-4.621687
"Castilla León","Ávila","El Fresno",591,40.61371,-4.757426
"Castilla León","Ávila","Fuente el Saúz",151,40.97907,-4.910458
"Castilla León","Ávila","Fuentes de Año",88,41.01748,-4.897614
"Castilla León","Ávila","Gallegos de Altamiros",60,40.70929,-4.899144
"Castilla León","Ávila","Gallegos de Sobrinos",45,40.71639,-5.111902
"Castilla León","Ávila","Garganta del Villar",39,40.45007,-5.105528
"Castilla León","Ávila","Gavilanes",529,40.27752,-4.851113
"Castilla León","Ávila","Gemuño",142,40.59291,-4.782099
"Castilla León","Ávila","Gilbuena",47,40.41522,-5.605305
"Castilla León","Ávila","Gil García",48,40.29817,-5.593304
"Castilla León","Ávila","Gimialcón",66,40.87731,-5.122354
"Castilla León","Ávila","Gotarrendura",167,40.82674,-4.739214
"Castilla León","Ávila","Grandes y San Martín",32,40.75497,-4.957851
"Castilla León","Ávila","Guisando",474,40.22166,-5.139702
"Castilla León","Ávila","Gutierre-Muñoz",64,40.98325,-4.638578
"Castilla León","Ávila","Hernansancho",142,40.85752,-4.729424
"Castilla León","Ávila","Herradón de Pinares",495,40.57639,-4.531389
"Castilla León","Ávila","Herreros de Suso",140,40.80199,-5.038302
"Castilla León","Ávila","Higuera de las Dueñas",270,40.23775,-4.601235
"Castilla León","Ávila","La Hija de Dios",75,40.53144,-4.965749
"Castilla León","Ávila","La Horcajada",457,40.43745,-5.466582
"Castilla León","Ávila","Horcajo de las Torres",441,41.0651,-5.090805
"Castilla León","Ávila","El Hornillo",280,40.24966,-5.104175
"Castilla León","Ávila","Hoyocasero",311,40.39886,-4.975904
"Castilla León","Ávila","El Hoyo de Pinares",2183,40.50175,-4.422359
"Castilla León","Ávila","Hoyorredondo",59,40.46219,-5.409976
"Castilla León","Ávila","Hoyos del Collado",30,40.35938,-5.201206
"Castilla León","Ávila","Hoyos del Espino",344,40.35726,-5.173525
"Castilla León","Ávila","Hoyos de Miguel Muñoz",27,40.39286,-5.06712
"Castilla León","Ávila","Hurtumpascual",42,40.69209,-5.112507
"Castilla León","Ávila","Junciana",40,40.41014,-5.557674
"Castilla León","Ávila","Langa",450,41.00771,-4.859519
"Castilla León","Ávila","Lanzahíta",788,40.20398,-4.937142
"Castilla León","Ávila","El Losar del Barco",103,40.39238,-5.539316
"Castilla León","Ávila","Los Llanos de Tormes",63,40.32849,-5.500204
"Castilla León","Ávila","Madrigal de las Altas Torres",1299,41.08944,-4.998767
"Castilla León","Ávila","Maello",700,40.81118,-4.5088
"Castilla León","Ávila","Malpartida de Corneja",91,40.52113,-5.351212
"Castilla León","Ávila","Mamblas",196,41.01953,-5.011209
"Castilla León","Ávila","Mancera de Arriba",70,40.79102,-5.147208
"Castilla León","Ávila","Marlín",31,40.71137,-4.829782
"Castilla León","Ávila","Martiherrero",361,40.67412,-4.781778
"Castilla León","Ávila","Martínez",108,40.63086,-5.348361
"Castilla León","Ávila","Mediana de Voltoya",117,40.7007,-4.563919
"Castilla León","Ávila","Medinilla",77,40.43935,-5.617625
"Castilla León","Ávila","Mengamuñoz",54,40.50863,-5.005374
"Castilla León","Ávila","Mesegar de Corneja",66,40.50275,-5.301532
"Castilla León","Ávila","Mijares",731,40.29747,-4.836677
"Castilla León","Ávila","Mingorría",410,40.75072,-4.665422
"Castilla León","Ávila","El Mirón",98,40.53179,-5.405205
"Castilla León","Ávila","Mironcillo",112,40.55497,-4.825576
"Castilla León","Ávila","Mirueña de los Infanzones",95,40.73749,-5.090713
"Castilla León","Ávila","Mombeltrán",916,40.25992,-5.01777
"Castilla León","Ávila","Monsalupe",59,40.76863,-4.781026
"Castilla León","Ávila","Moraleja de Matacabras",53,41.10721,-4.957326
"Castilla León","Ávila","Muñana",502,40.59051,-5.014978
"Castilla León","Ávila","Muñico",80,40.70657,-5.026659
"Castilla León","Ávila","Muñogalindo",300,40.6028,-4.900547
"Castilla León","Ávila","Muñogrande",74,40.82127,-4.922052
"Castilla León","Ávila","Muñomer del Peco",111,40.85851,-4.880385
"Castilla León","Ávila","Muñopepe",104,40.63546,-4.818228
"Castilla León","Ávila","Muñosancho",88,40.92184,-5.035893
"Castilla León","Ávila","Muñotello",49,40.54302,-5.040777
"Castilla León","Ávila","Narrillos del Álamo",59,40.56697,-5.466862
"Castilla León","Ávila","Narrillos del Rebollar",34,40.66433,-4.964759
"Castilla León","Ávila","Narros del Castillo",152,40.85886,-5.059597
"Castilla León","Ávila","Narros del Puerto",28,40.54162,-4.991971
"Castilla León","Ávila","Narros de Saldueña",106,40.87524,-4.869534
"Castilla León","Ávila","Navacepedilla de Corneja",100,40.48594,-5.184513
"Castilla León","Ávila","Nava de Arévalo",663,40.97843,-4.775988
"Castilla León","Ávila","Nava del Barco",83,40.29252,-5.540213
"Castilla León","Ávila","Navadijos",29,40.42566,-5.08356
"Castilla León","Ávila","Navaescurial",53,40.47199,-5.277838
"Castilla León","Ávila","Navahondilla",353,40.32642,-4.495955
"Castilla León","Ávila","Navalacruz",204,40.44016,-4.932515
"Castilla León","Ávila","Navalmoral",412,40.45965,-4.7686
"Castilla León","Ávila","Navalonguilla",185,40.27827,-5.501873
"Castilla León","Ávila","Navalosa",324,40.40134,-4.931455
"Castilla León","Ávila","Navalperal de Pinares",826,40.59454,-4.410842
"Castilla León","Ávila","Navalperal de Tormes",77,40.35288,-5.300556
"Castilla León","Ávila","Navaluenga",2172,40.41096,-4.707685
"Castilla León","Ávila","Navaquesera",43,40.42503,-4.908706
"Castilla León","Ávila","Navarredonda de Gredos",446,40.36239,-5.13352
"Castilla León","Ávila","Navarredondilla",158,40.45349,-4.821207
"Castilla León","Ávila","Navarrevisca",299,40.36426,-4.89544
"Castilla León","Ávila","Las Navas del Marqués",5590,40.60316,-4.326336
"Castilla León","Ávila","Navatalgordo",237,40.41558,-4.872152
"Castilla León","Ávila","Navatejares",50,40.33571,-5.530873
"Castilla León","Ávila","Neila de San Miguel",62,40.42363,-5.651734
"Castilla León","Ávila","Niharra",183,40.5894,-4.839691
"Castilla León","Ávila","Ojos-Albos",96,40.7065,-4.51648
"Castilla León","Ávila","Orbita",69,40.99851,-4.647501
"Castilla León","Ávila","El Oso",129,40.84169,-4.770429
"Castilla León","Ávila","Padiernos",275,40.6211,-4.845123
"Castilla León","Ávila","Pajares de Adaja",127,40.92365,-4.64045
"Castilla León","Ávila","Palacios de Goda",397,41.1171,-4.783861
"Castilla León","Ávila","Papatrigo",219,40.86782,-4.834677
"Castilla León","Ávila","El Parral",62,40.7973,-4.990441
"Castilla León","Ávila","Pascualcobo",39,40.65711,-5.276952
"Castilla León","Ávila","Pedro Bernardo",758,40.24287,-4.914765
"Castilla León","Ávila","Pedro-Rodríguez",134,40.93684,-4.784845
"Castilla León","Ávila","Peguerinos",294,40.62729,-4.232728
"Castilla León","Ávila","Peñalba de Ávila",105,40.77176,-4.747359
"Castilla León","Ávila","Piedrahíta",1637,40.46339,-5.328194
"Castilla León","Ávila","Piedralaves",2150,40.31736,-4.69809
"Castilla León","Ávila","Poveda",33,40.5669,-5.079698
"Castilla León","Ávila","Poyales del Hoyo",487,40.17289,-5.166279
"Castilla León","Ávila","Pozanco",60,40.8014,-4.66711
"Castilla León","Ávila","Pradosegar",117,40.55083,-5.071213
"Castilla León","Ávila","Puerto Castilla",98,40.28954,-5.629994
"Castilla León","Ávila","Rasueros",160,41.0232,-5.074331
"Castilla León","Ávila","Riocabado",125,40.8301,-4.803108
"Castilla León","Ávila","Riofrío",191,40.54721,-4.777152
"Castilla León","Ávila","Rivilla de Barajas",56,40.9013,-4.987929
"Castilla León","Ávila","Salobral",102,40.61165,-4.811044
"Castilla León","Ávila","Salvadiós",71,40.877,-5.096365
"Castilla León","Ávila","San Bartolomé de Béjar",49,40.40808,-5.662875
"Castilla León","Ávila","San Bartolomé de Corneja",35,40.49294,-5.385234
"Castilla León","Ávila","San Bartolomé de Pinares",489,40.54251,-4.539612
"Castilla León","Ávila","Sanchidrián",708,40.89338,-4.581257
"Castilla León","Ávila","Sanchorreja",79,40.66479,-4.915372
"Castilla León","Ávila","San Esteban de los Patos",20,40.74583,-4.624889
"Castilla León","Ávila","San Esteban del Valle",734,40.27536,-4.980085
"Castilla León","Ávila","San Esteban de Zapardiel",40,41.093,-4.900951
"Castilla León","Ávila","San García de Ingelmos",66,40.76964,-5.116322
"Castilla León","Ávila","San Juan de la Encinilla",70,40.82997,-4.838498
"Castilla León","Ávila","San Juan de la Nava",426,40.47903,-4.682141
"Castilla León","Ávila","San Juan del Molinillo",234,40.45938,-4.818235
"Castilla León","Ávila","San Juan del Olmo",81,40.6527,-5.049766
"Castilla León","Ávila","San Lorenzo de Tormes",30,40.37025,-5.48815
"Castilla León","Ávila","San Martín de la Vega del Alberche",153,40.43062,-5.156746
"Castilla León","Ávila","San Martín del Pimpollar",219,40.36848,-5.055604
"Castilla León","Ávila","San Miguel de Corneja",70,40.4868,-5.287448
"Castilla León","Ávila","San Miguel de Serrezuela",106,40.67038,-5.287457
"Castilla León","Ávila","San Pascual",45,40.88227,-4.756086
"Castilla León","Ávila","San Pedro del Arroyo",501,40.80069,-4.870896
"Castilla León","Ávila","Santa Cruz del Valle",304,40.25078,-5.003672
"Castilla León","Ávila","Santa Cruz de Pinares",170,40.54183,-4.57963
"Castilla León","Ávila","Santa María del Arroyo",102,40.59944,-4.922258
"Castilla León","Ávila","Santa María del Berrocal",382,40.50954,-5.406222
"Castilla León","Ávila","Santa María de los Caballeros",72,40.38877,-5.451696
"Castilla León","Ávila","Santa María del Tiétar",553,40.30389,-4.555526
"Castilla León","Ávila","Santiago del Collado",162,40.43356,-5.356558
"Castilla León","Ávila","Santo Domingo de las Posadas",69,40.81218,-4.633421
"Castilla León","Ávila","Santo Tomé de Zabarcos",71,40.78664,-4.910215
"Castilla León","Ávila","San Vicente de Arévalo",165,40.9677,-4.799979
"Castilla León","Ávila","La Serrada",135,40.63132,-4.792297
"Castilla León","Ávila","Serranillos",252,40.33594,-4.911497
"Castilla León","Ávila","Sigeres",41,40.79939,-4.932576
"Castilla León","Ávila","Sinlabajos",135,41.07727,-4.831933
"Castilla León","Ávila","Solana de Ávila",100,40.31465,-5.615701
"Castilla León","Ávila","Solana de Rioalmar",138,40.73724,-5.010678
"Castilla León","Ávila","Solosancho",758,40.55363,-4.906135
"Castilla León","Ávila","Sotalbo",245,40.54151,-4.849229
"Castilla León","Ávila","Sotillo de la Adrada",5003,40.29404,-4.585647
"Castilla León","Ávila","El Tiemblo",4526,40.41628,-4.503831
"Castilla León","Ávila","Tiñosillos",756,40.93408,-4.72748
"Castilla León","Ávila","Tolbaños",86,40.75098,-4.581374
"Castilla León","Ávila","Tormellas",35,40.30432,-5.511548
"Castilla León","Ávila","Tornadizos de Ávila",465,40.62614,-4.615232
"Castilla León","Ávila","Tórtoles",38,40.5609,-5.261655
"Castilla León","Ávila","La Torre",212,40.58926,-4.965192
"Castilla León","Ávila","Umbrías",100,40.31298,-5.578032
"Castilla León","Ávila","Vadillo de la Sierra",51,40.60506,-5.122006
"Castilla León","Ávila","Valdecasa",56,40.65955,-5.012668
"Castilla León","Ávila","Vega de Santa María",86,40.83594,-4.64183
"Castilla León","Ávila","Velayos",217,40.84094,-4.622241
"Castilla León","Ávila","Villaflor",99,40.7584,-4.874116
"Castilla León","Ávila","Villafranca de la Sierra",134,40.49773,-5.230729
"Castilla León","Ávila","Villanueva de Gómez",115,40.88379,-4.715201
"Castilla León","Ávila","Villanueva del Aceral",92,41.04132,-4.852352
"Castilla León","Ávila","Villanueva del Campillo",101,40.57825,-5.179864
"Castilla León","Ávila","Villar de Corneja",36,40.47478,-5.43251
"Castilla León","Ávila","Villarejo del Valle",314,40.28594,-4.997665
"Castilla León","Ávila","Villatoro",161,40.55616,-5.111281
"Castilla León","Ávila","Viñegra de Moraña",48,40.84931,-4.922153
"Castilla León","Ávila","Vita",71,40.81179,-5.005141
"Castilla León","Ávila","Zapardiel de la Cañada",84,40.60593,-5.340081
"Castilla León","Ávila","Zapardiel de la Ribera",92,40.35575,-5.328642
"Castilla León","Ávila","San Juan de Gredos",228,40.36386,-5.237109
"Castilla León","Ávila","Santa María del Cubillo",322,40.7425,-4.472222
"Castilla León","Ávila","Diego del Carpio",106,40.6625,-5.340833
"Castilla León","Ávila","Santiago del Tormes",107,40.36666,-5.366667
"Castilla León","Ávila","Villanueva de Ávila",227,40.37959,-4.821985
"Extremadura","Badajoz","Acedera",802,39.0766,-5.572279
"Extremadura","Badajoz","Aceuchal",5404,38.64706,-6.487179
"Extremadura","Badajoz","Ahillones",784,38.26235,-5.861972
"Extremadura","Badajoz","Alange",1808,38.78708,-6.243493
"Extremadura","Badajoz","La Albuera",1992,38.71612,-6.822261
"Extremadura","Badajoz","Alburquerque",4998,39.21936,-7.001317
"Extremadura","Badajoz","Alconchel",1626,38.51668,-7.070871
"Extremadura","Badajoz","Alconera",756,38.39647,-6.476881
"Extremadura","Badajoz","Aljucén",255,39.04591,-6.33166
"Extremadura","Badajoz","Almendral",1197,38.61327,-6.822295
"Extremadura","Badajoz","Almendralejo",34284,38.68982,-6.405679
"Extremadura","Badajoz","Arroyo de San Serván",4061,38.85286,-6.455208
"Extremadura","Badajoz","Atalaya",258,38.3359,-6.472773
"Extremadura","Badajoz","Azuaga",7595,38.25962,-5.677916
"Extremadura","Badajoz","Badajoz",150570,38.8786,-6.970284
"Extremadura","Badajoz","Barcarrota",3473,38.51441,-6.849041
"Extremadura","Badajoz","Baterno",238,38.95633,-4.911456
"Extremadura","Badajoz","Benquerencia de la Serena",789,38.69917,-5.49442
"Extremadura","Badajoz","Berlanga",2214,38.28272,-5.829181
"Extremadura","Badajoz","Bienvenida",2021,38.29828,-6.21055
"Extremadura","Badajoz","Bodonal de la Sierra",993,38.1479,-6.560087
"Extremadura","Badajoz","Burguillos del Cerro",2970,38.37848,-6.589302
"Extremadura","Badajoz","Cabeza del Buey",4526,38.72123,-5.219465
"Extremadura","Badajoz","Cabeza la Vaca",1255,38.08687,-6.422567
"Extremadura","Badajoz","Calamonte",6120,38.88998,-6.385029
"Extremadura","Badajoz","Calera de León",918,38.10712,-6.336793
"Extremadura","Badajoz","Calzadilla de los Barros",685,38.30002,-6.316763
"Extremadura","Badajoz","Campanario",4705,38.86335,-5.617795
"Extremadura","Badajoz","Campillo de Llerena",1314,38.50023,-5.831132
"Extremadura","Badajoz","Capilla",145,38.82045,-5.08428
"Extremadura","Badajoz","Carmonita",520,39.15389,-6.338521
"Extremadura","Badajoz","El Carrascalejo",77,39.02259,-6.337111
"Extremadura","Badajoz","Casas de Don Pedro",1370,39.10563,-5.328635
"Extremadura","Badajoz","Casas de Reina",207,38.20173,-5.969779
"Extremadura","Badajoz","Castilblanco",844,39.28229,-5.091
"Extremadura","Badajoz","Castuera",5497,38.72257,-5.545517
"Extremadura","Badajoz","La Codosera",2025,39.20667,-7.169003
"Extremadura","Badajoz","Cordobilla de Lácara",827,39.14813,-6.436437
"Extremadura","Badajoz","La Coronada",2148,38.9172,-5.669852
"Extremadura","Badajoz","Corte de Peleas",1165,38.72504,-6.67092
"Extremadura","Badajoz","Cristina",547,38.83703,-6.100307
"Extremadura","Badajoz","Cheles",1177,38.51247,-7.281178
"Extremadura","Badajoz","Don Álvaro",815,38.84887,-6.275146
"Extremadura","Badajoz","Don Benito",37728,38.9543,-5.861752
"Extremadura","Badajoz","Entrín Bajo",540,38.71845,-6.713396
"Extremadura","Badajoz","Esparragalejo",1494,38.94225,-6.439241
"Extremadura","Badajoz","Esparragosa de la Serena",933,38.6495,-5.607008
"Extremadura","Badajoz","Esparragosa de Lares",854,38.97508,-5.270102
"Extremadura","Badajoz","Feria",1047,38.51197,-6.564341
"Extremadura","Badajoz","Fregenal de la Sierra",4743,38.16476,-6.651353
"Extremadura","Badajoz","Fuenlabrada de los Montes",1709,39.13128,-4.935597
"Extremadura","Badajoz","Fuente de Cantos",4592,38.24661,-6.309231
"Extremadura","Badajoz","Fuente del Arco",660,38.15202,-5.896564
"Extremadura","Badajoz","Fuente del Maestre",6567,38.52863,-6.449848
"Extremadura","Badajoz","Fuentes de León",2158,38.06809,-6.538614
"Extremadura","Badajoz","Garbayuela",475,39.04953,-5.000564
"Extremadura","Badajoz","Garlitos",530,38.87967,-5.04805
"Extremadura","Badajoz","La Garrovilla",2292,38.92122,-6.475953
"Extremadura","Badajoz","Granja de Torrehermosa",1900,38.31067,-5.597606
"Extremadura","Badajoz","Guareña",6649,38.86047,-6.104637
"Extremadura","Badajoz","La Haba",1214,38.91763,-5.801109
"Extremadura","Badajoz","Helechosa de los Montes",562,39.31137,-4.909214
"Extremadura","Badajoz","Herrera del Duque",3399,39.16891,-5.051313
"Extremadura","Badajoz","Higuera de la Serena",887,38.64634,-5.741075
"Extremadura","Badajoz","Higuera de Llerena",339,38.37675,-5.999552
"Extremadura","Badajoz","Higuera de Vargas",1856,38.44587,-6.973897
"Extremadura","Badajoz","Higuera la Real",2202,38.14108,-6.689744
"Extremadura","Badajoz","Hinojosa del Valle",480,38.48338,-6.184557
"Extremadura","Badajoz","Hornachos",3396,38.55511,-6.069669
"Extremadura","Badajoz","Jerez de los Caballeros",9112,38.31935,-6.771007
"Extremadura","Badajoz","La Lapa",293,38.45348,-6.522162
"Extremadura","Badajoz","Lobón",2734,38.84752,-6.625467
"Extremadura","Badajoz","Llera",802,38.44814,-6.057196
"Extremadura","Badajoz","Llerena",5645,38.23769,-6.015329
"Extremadura","Badajoz","Magacela",498,38.89587,-5.73411
"Extremadura","Badajoz","Maguilla",929,38.36658,-5.837015
"Extremadura","Badajoz","Malcocinado",346,38.12186,-5.693144
"Extremadura","Badajoz","Malpartida de la Serena",518,38.67442,-5.640807
"Extremadura","Badajoz","Manchita",737,38.81499,-6.022654
"Extremadura","Badajoz","Medellín",2237,38.96302,-5.957706
"Extremadura","Badajoz","Medina de las Torres",1166,38.34339,-6.411753
"Extremadura","Badajoz","Mengabril",491,38.93616,-5.933055
"Extremadura","Badajoz","Mérida",59857,38.91586,-6.345606
"Extremadura","Badajoz","Mirandilla",1246,39.0017,-6.289864
"Extremadura","Badajoz","Monesterio",4230,38.08678,-6.274293
"Extremadura","Badajoz","Montemolín",1267,38.15512,-6.214543
"Extremadura","Badajoz","Monterrubio de la Serena",2199,38.5892,-5.443485
"Extremadura","Badajoz","Montijo",15232,38.90995,-6.617333
"Extremadura","Badajoz","La Morera",704,38.54596,-6.654481
"Extremadura","Badajoz","La Nava de Santiago",914,39.06277,-6.50497
"Extremadura","Badajoz","Navalvillar de Pela",4345,39.09064,-5.469171
"Extremadura","Badajoz","Nogales",640,38.58658,-6.749022
"Extremadura","Badajoz","Oliva de la Frontera",4936,38.27606,-6.91992
"Extremadura","Badajoz","Oliva de Mérida",1679,38.79173,-6.126723
"Extremadura","Badajoz","Olivenza",11742,38.68164,-7.101516
"Extremadura","Badajoz","Orellana de la Sierra",261,39.03048,-5.497543
"Extremadura","Badajoz","Orellana la Vieja",2573,39.00505,-5.534274
"Extremadura","Badajoz","Palomas",662,38.69216,-6.134156
"Extremadura","Badajoz","La Parra",1284,38.5215,-6.6244
"Extremadura","Badajoz","Peñalsordo",824,38.81918,-5.114106
"Extremadura","Badajoz","Peraleda del Zaucejo",479,38.47416,-5.565681
"Extremadura","Badajoz","Puebla de Alcocer",1107,38.98521,-5.257938
"Extremadura","Badajoz","Puebla de la Calzada",5859,38.89429,-6.624558
"Extremadura","Badajoz","Puebla de la Reina",695,38.66394,-6.103811
"Extremadura","Badajoz","Puebla del Maestre",658,38.08456,-6.07957
"Extremadura","Badajoz","Puebla del Prior",460,38.5709,-6.197352
"Extremadura","Badajoz","Puebla de Obando",1806,39.17762,-6.628193
"Extremadura","Badajoz","Puebla de Sancho Pérez",2635,38.39765,-6.399928
"Extremadura","Badajoz","Quintana de la Serena",4455,38.74163,-5.672316
"Extremadura","Badajoz","Reina",142,38.18746,-5.949533
"Extremadura","Badajoz","Rena",613,39.05318,-5.808552
"Extremadura","Badajoz","Retamal de Llerena",429,38.57788,-5.838177
"Extremadura","Badajoz","Ribera del Fresno",3187,38.55236,-6.241587
"Extremadura","Badajoz","Risco",127,38.91041,-5.123031
"Extremadura","Badajoz","La Roca de la Sierra",1453,39.10997,-6.689936
"Extremadura","Badajoz","Salvaleón",1656,38.50986,-6.786355
"Extremadura","Badajoz","Salvatierra de los Barros",1559,38.49078,-6.685156
"Castilla León","Badajoz","Sancti-Spíritus",145,40.70518,-6.400911
"Extremadura","Badajoz","Sancti-Spíritus",145,38.92467,-5.14595
"Extremadura","Badajoz","San Pedro de Mérida",861,38.94798,-6.186302
"Extremadura","Badajoz","Santa Amalia",3920,39.01209,-6.01155
"Extremadura","Badajoz","Santa Marta",4145,38.61237,-6.629105
"Extremadura","Badajoz","Los Santos de Maimona",8070,38.44897,-6.383959
"Extremadura","Badajoz","San Vicente de Alcántara",5204,39.36045,-7.13695
"Extremadura","Badajoz","Segura de León",1792,38.12104,-6.528532
"Extremadura","Badajoz","Siruela",1771,38.97767,-5.051702
"Extremadura","Badajoz","Solana de los Barros",2542,38.72629,-6.538014
"Extremadura","Badajoz","Talarrubias",3259,39.03328,-5.236056
"Extremadura","Badajoz","Talavera la Real",5298,38.8765,-6.77358
"Extremadura","Badajoz","Táliga",660,38.52709,-7.014642
"Extremadura","Badajoz","Tamurejo",199,38.99115,-4.94776
"Extremadura","Badajoz","Torre de Miguel Sesmero",1241,38.61896,-6.796033
"Extremadura","Badajoz","Torremayor",1004,38.90372,-6.536332
"Extremadura","Badajoz","Torremejía",2222,38.78965,-6.381672
"Extremadura","Badajoz","Trasierra",593,38.19107,-5.995481
"Extremadura","Badajoz","Trujillanos",1382,38.9516,-6.259639
"Extremadura","Badajoz","Usagre",1723,38.35719,-6.164374
"Extremadura","Badajoz","Valdecaballeros",1051,39.24578,-5.191957
"Extremadura","Badajoz","Valdetorres",1135,38.91568,-6.068682
"Extremadura","Badajoz","Valencia de las Torres",480,38.405,-6.003782
"Extremadura","Badajoz","Valencia del Mombuey",713,38.24256,-7.119643
"Extremadura","Badajoz","Valencia del Ventoso",1885,38.265,-6.474613
"Extremadura","Badajoz","Valverde de Burguillos",270,38.32713,-6.537829
"Extremadura","Badajoz","Valverde de Leganés",4218,38.67241,-6.981911
"Extremadura","Badajoz","Valverde de Llerena",566,38.21376,-5.822106
"Extremadura","Badajoz","Valverde de Mérida",1010,38.91176,-6.221605
"Extremadura","Badajoz","Valle de la Serena",1093,38.70062,-5.799649
"Extremadura","Badajoz","Valle de Matamoros",332,38.3796,-6.802888
"Extremadura","Badajoz","Valle de Santa Ana",1107,38.36528,-6.788002
"Extremadura","Badajoz","Villafranca de los Barros",12362,38.5623,-6.337831
"Extremadura","Badajoz","Villagarcía de la Torre",891,38.29387,-6.080569
"Extremadura","Badajoz","Villagonzalo",1223,38.86309,-6.196941
"Extremadura","Badajoz","Villalba de los Barros",1447,38.61292,-6.509777
"Extremadura","Badajoz","Villanueva de la Serena",25784,38.97399,-5.800302
"Extremadura","Badajoz","Villanueva del Fresno",3274,38.37597,-7.168993
"Extremadura","Badajoz","Villar del Rey",2080,39.13239,-6.847796
"Extremadura","Badajoz","Villar de Rena",1323,39.07669,-5.811779
"Extremadura","Badajoz","Villarta de los Montes",395,39.21384,-4.792194
"Extremadura","Badajoz","Zafra",16711,38.4258,-6.416446
"Extremadura","Badajoz","Zahínos",2765,38.33017,-6.955032
"Extremadura","Badajoz","Zalamea de la Serena",3431,38.64977,-5.656967
"Extremadura","Badajoz","Zarza-Capilla",299,38.80047,-5.169444
"Castilla León","Badajoz","La Zarza",3345,41.26155,-4.770861
"Extremadura","Badajoz","La Zarza",3345,38.81807,-6.217914
"Extremadura","Badajoz","Valdelacalzada",2755,38.88985,-6.701389
"Extremadura","Badajoz","Pueblonuevo del Guadiana",1953,38.92309,-6.755604
"Islas Baleares","Balears, Illes","Alaró",6037,39.70685,2.790548
"Islas Baleares","Balears, Illes","Alaior",10042,39.93064,4.139987
"Islas Baleares","Balears, Illes","Alcúdia",21683,39.85231,3.122027
"Islas Baleares","Balears, Illes","Algaida",6311,39.55969,2.892573
"Islas Baleares","Balears, Illes","Andratx",12062,39.5708,2.421365
"Islas Baleares","Balears, Illes","Artà",8387,39.69215,3.349073
"Islas Baleares","Balears, Illes","Banyalbufar",577,39.68718,2.513457
"Islas Baleares","Balears, Illes","Binissalem",9281,39.68446,2.847511
"Islas Baleares","Balears, Illes","Búger",1199,39.75927,2.985579
"Islas Baleares","Balears, Illes","Bunyola",7490,39.69663,2.699386
"Islas Baleares","Balears, Illes","Calvià",53491,39.56524,2.504216
"Islas Baleares","Balears, Illes","Campanet",2824,39.77475,2.965845
"Islas Baleares","Balears, Illes","Campos",12163,39.42727,3.021843
"Islas Baleares","Balears, Illes","Capdepera",12860,39.70133,3.435561
"Islas Baleares","Balears, Illes","Ciutadella de Menorca",31941,40.00232,3.839262
"Islas Baleares","Balears, Illes","Consell",4399,39.67012,2.816188
"Islas Baleares","Balears, Illes","Costitx",1516,39.65622,2.949179
"Islas Baleares","Balears, Illes","Escorca",203,39.8211,2.869478
"Islas Baleares","Balears, Illes","Esporles",5252,39.66946,2.57915
"Islas Baleares","Balears, Illes","Estellencs",374,39.65333,2.481678
"Islas Baleares","Balears, Illes","Felanitx",18850,39.46876,3.148028
"Islas Baleares","Balears, Illes","Ferreries",5114,39.98328,4.010968
"Islas Baleares","Balears, Illes","Formentera",11389,38.6964,1.453135
"Islas Baleares","Balears, Illes","Fornalutx",715,39.7826,2.741559
"Islas Baleares","Balears, Illes","Eivissa",53717,38.90886,1.432378
"Islas Baleares","Balears, Illes","Inca",35654,39.71875,2.915544
"Islas Baleares","Balears, Illes","Lloret de Vistalegre",1619,39.61689,2.974723
"Islas Baleares","Balears, Illes","Lloseta",6456,39.71799,2.864577
"Islas Baleares","Balears, Illes","Llubí",2505,39.70045,3.004657
"Islas Baleares","Balears, Illes","Llucmajor",39912,39.48591,2.89485
"Islas Baleares","Balears, Illes","Maó",30419,39.88961,4.264211
"Islas Baleares","Balears, Illes","Manacor",47777,39.57434,3.20142
"Islas Baleares","Balears, Illes","Mancor de la Vall",1702,39.75063,2.873395
"Islas Baleares","Balears, Illes","Maria de la Salut",2397,39.67049,3.076207
"Islas Baleares","Balears, Illes","Marratxí",40079,39.64213,2.752193
"Islas Baleares","Balears, Illes","Es Mercadal",6215,39.99089,4.093808
"Islas Baleares","Balears, Illes","Montuïri",3216,39.57029,2.984617
"Islas Baleares","Balears, Illes","Muro",8115,39.73408,3.053606
"Islas Baleares","Balears, Illes","Palma",431521,39.56951,2.649966
"Islas Baleares","Balears, Illes","Petra",3184,39.6091,3.112162
"Islas Baleares","Balears, Illes","Pollença",17594,39.87775,3.017193
"Islas Baleares","Balears, Illes","Porreres",5888,39.51733,3.023831
"Islas Baleares","Balears, Illes","Sa Pobla",14630,39.77052,3.016888
"Islas Baleares","Balears, Illes","Puigpunyent",2035,39.62405,2.527614
"Islas Baleares","Balears, Illes","Sant Antoni de Portmany",28609,38.98012,1.306587
"Islas Baleares","Balears, Illes","Sencelles",3900,39.64624,2.896189
"Islas Baleares","Balears, Illes","Sant Josep de sa Talaia",29664,38.92173,1.293443
"Islas Baleares","Balears, Illes","Sant Joan",2228,39.59594,3.039554
"Islas Baleares","Balears, Illes","Sant Joan de Labritja",6948,39.07785,1.51227
"Islas Baleares","Balears, Illes","Sant Llorenç des Cardassar",9331,39.60896,3.284748
"Islas Baleares","Balears, Illes","Sant Lluís",7130,39.85266,4.259394
"Islas Baleares","Balears, Illes","Santa Eugènia",1899,39.62394,2.839166
"Islas Baleares","Balears, Illes","Santa Margalida",13757,39.70306,3.103551
"Islas Baleares","Balears, Illes","Santa María del Camí",7623,39.6468,2.776213
"Islas Baleares","Balears, Illes","Santanyí",12887,39.35489,3.127745
"Islas Baleares","Balears, Illes","Selva",4294,39.75464,2.90122
"Islas Baleares","Balears, Illes","Ses Salines",5129,39.339,3.051014
"Islas Baleares","Balears, Illes","Sineu",4469,39.64284,3.010996
"Islas Baleares","Balears, Illes","Sóller",13744,39.76583,2.714238
"Islas Baleares","Balears, Illes","Son Servera",12261,39.62423,3.356735
"Islas Baleares","Balears, Illes","Valldemossa",2016,39.71176,2.622538
"Islas Baleares","Balears, Illes","Es Castell",7772,39.8776,4.289603
"Islas Baleares","Balears, Illes","Vilafranca de Bonany",3816,39.56957,3.084015
"Islas Baleares","Balears, Illes","Ariany",1018,39.64943,3.11086
"Islas Baleares","Balears, Illes","Es Migjorn Gran",1690,39.94633,4.049105
"Catalunya","Barcelona","Abrera",13014,41.51609,1.902142
"Catalunya","Barcelona","Aguilar de Segarra",291,41.73976,1.629385
"Catalunya","Barcelona","Alella",10217,41.49395,2.295461
"Catalunya","Barcelona","Alpens",270,42.1201,2.101363
"Catalunya","Barcelona","L' Ametlla del Vallès",9462,41.66976,2.261185
"Catalunya","Barcelona","Arenys de Mar",16642,41.57944,2.55148
"Catalunya","Barcelona","Arenys de Munt",9458,41.61026,2.541376
"Catalunya","Barcelona","Argençola",237,41.59967,1.44341
"Catalunya","Barcelona","Argentona",12844,41.55555,2.400564
"Catalunya","Barcelona","Artés",6084,41.79839,1.954726
"Catalunya","Barcelona","Avià",2243,42.07741,1.825308
"Catalunya","Barcelona","Avinyó",2313,41.86209,1.971941
"Catalunya","Barcelona","Avinyonet del Penedès",1744,41.3606,1.776485
"Catalunya","Barcelona","Aiguafreda",2576,41.76884,2.250261
"Catalunya","Barcelona","Badalona",227083,41.45014,2.24742
"Catalunya","Barcelona","Bagà",2182,42.25188,1.863364
"Catalunya","Barcelona","Balenyà",4036,41.84387,2.251218
"Catalunya","Barcelona","Balsareny",3328,41.86267,1.873386
"Catalunya","Barcelona","Barcelona",1702547,41.38792,2.169919
"Catalunya","Barcelona","Begues",7462,41.33101,1.921987
"Catalunya","Barcelona","Bellprat",69,41.51725,1.433458
"Catalunya","Barcelona","Berga",17160,42.10144,1.8438
"Catalunya","Barcelona","Borredà",419,42.13541,1.993754
"Catalunya","Barcelona","El Bruc",2288,41.57993,1.78023
"Catalunya","Barcelona","El Brull",293,41.81677,2.305493
"Catalunya","Barcelona","Les Cabanyes",1012,41.37174,1.68963
"Catalunya","Barcelona","Cabrera d'Anoia",1709,41.47944,1.704722
"Catalunya","Barcelona","Cabrera de Mar",5018,41.52623,2.393533
"Catalunya","Barcelona","Cabrils",7767,41.52552,2.368645
"Catalunya","Barcelona","Calaf",3618,41.73342,1.513498
"Catalunya","Barcelona","Caldes d'Estrac",3259,41.56946,2.526318
"Catalunya","Barcelona","Caldes de Montbui",18336,41.62976,2.165922
"Catalunya","Barcelona","Calders",1114,41.79227,1.996567
"Catalunya","Barcelona","Calella",20369,41.6134,2.657365
"Catalunya","Barcelona","Calonge de Segarra",174,41.76363,1.482249
"Catalunya","Barcelona","Calldetenes",2690,41.92522,2.283792
"Catalunya","Barcelona","Callús",2145,41.78109,1.784008
"Catalunya","Barcelona","Campins",606,41.72538,2.464172
"Catalunya","Barcelona","Canet de Mar",15140,41.58897,2.581924
"Catalunya","Barcelona","Canovelles",17312,41.61582,2.283456
"Catalunya","Barcelona","Cànoves i Samalús",3315,41.69384,2.353842
"Catalunya","Barcelona","Canyelles",5367,41.28708,1.721569
"Catalunya","Barcelona","Capellades",5567,41.53075,1.679613
"Catalunya","Barcelona","Capolat",92,42.07713,1.752565
"Catalunya","Barcelona","Cardedeu",19064,41.63816,2.354492
"Catalunya","Barcelona","Cardona",4574,41.91392,1.681348
"Catalunya","Barcelona","Carme",814,41.53126,1.623486
"Catalunya","Barcelona","Casserres",1676,42.01234,1.845834
"Catalunya","Barcelona","Castellar del Riu",163,42.12284,1.772439
"Catalunya","Barcelona","Castellar del Vallès",25322,41.61618,2.085649
"Catalunya","Barcelona","Castellar de n'Hug",164,42.28326,2.016574
"Catalunya","Barcelona","Castellbell i el Vilar",4138,41.63389,1.863889
"Catalunya","Barcelona","Castellbisbal",12972,41.47467,1.981407
"Catalunya","Barcelona","Castellcir",784,41.76043,2.148678
"Catalunya","Barcelona","Castelldefels",69450,41.28039,1.976774
"Catalunya","Barcelona","Castell de l'Areny",69,42.17318,1.945753
"Catalunya","Barcelona","Castellet i la Gornal",2674,41.25391,1.592478
"Catalunya","Barcelona","Castellfollit del Boix",459,41.66579,1.684726
"Catalunya","Barcelona","Castellfollit de Riubregós",151,41.77595,1.437833
"Catalunya","Barcelona","Castellgalí",2347,41.67451,1.839598
"Catalunya","Barcelona","Castellnou de Bages",1430,41.83533,1.837383
"Catalunya","Barcelona","Castellolí",658,41.59896,1.700774
"Catalunya","Barcelona","Castellterçol",2773,41.74788,2.12309
"Catalunya","Barcelona","Castellví de la Marca",1716,41.33242,1.594271
"Catalunya","Barcelona","Castellví de Rosanes",2106,41.45037,1.899479
"Catalunya","Barcelona","Centelles",7775,41.79659,2.221327
"Catalunya","Barcelona","Cervelló",9647,41.39615,1.957621
"Catalunya","Barcelona","Collbató",4849,41.56639,1.830136
"Catalunya","Barcelona","Collsuspina",389,41.82787,2.175478
"Catalunya","Barcelona","Copons",351,41.63666,1.517642
"Catalunya","Barcelona","Corbera de Llobregat",15726,41.41764,1.932827
"Catalunya","Barcelona","Cornellà de Llobregat",91589,41.35561,2.070432
"Catalunya","Barcelona","Cubelles",17243,41.20835,1.672825
"Catalunya","Barcelona","Dosrius",6142,41.59482,2.405386
"Catalunya","Barcelona","Esparreguera",22550,41.53889,1.870692
"Catalunya","Barcelona","Esplugues de Llobregat",47613,41.37751,2.088085
"Catalunya","Barcelona","L' Espunyola",262,42.05222,1.77324
"Catalunya","Barcelona","L' Estany",401,41.86858,2.113499
"Catalunya","Barcelona","Fígols",41,42.1809,1.836082
"Catalunya","Barcelona","Fogars de Montclús",502,41.72861,2.444444
"Catalunya","Barcelona","Fogars de la Selva",1680,41.72539,2.673566
"Catalunya","Barcelona","Folgueroles",2263,41.93813,2.31796
"Catalunya","Barcelona","Fonollosa",1585,41.76566,1.669017
"Catalunya","Barcelona","Font-rubí",1446,41.43423,1.591408
"Catalunya","Barcelona","Les Franqueses del Vallès",20715,41.61889,2.298056
"Catalunya","Barcelona","Gallifa",172,41.69324,2.115268
"Catalunya","Barcelona","La Garriga",17305,41.68537,2.285918
"Catalunya","Barcelona","Gavà",48007,41.30317,2.003213
"Catalunya","Barcelona","Gaià",178,41.91722,1.92489
"Catalunya","Barcelona","Gelida",8098,41.44048,1.862745
"Catalunya","Barcelona","Gironella",5055,42.03363,1.8825
"Catalunya","Barcelona","Gisclareny",30,42.25015,1.786561
"Catalunya","Barcelona","La Granada",2263,41.37685,1.719494
"Catalunya","Barcelona","Granera",84,41.72563,2.061581
"Catalunya","Barcelona","Granollers",64181,41.60821,2.287789
"Catalunya","Barcelona","Gualba",1738,41.73145,2.502726
"Catalunya","Barcelona","Sant Salvador de Guardiola",3476,41.6806,1.767125
"Catalunya","Barcelona","Guardiola de Berguedà",953,42.23344,1.879111
"Catalunya","Barcelona","Gurb",2712,41.95394,2.235545
"Catalunya","Barcelona","L' Hospitalet de Llobregat",279993,41.35958,2.099704
"Catalunya","Barcelona","Igualada",41466,41.57877,1.617193
"Catalunya","Barcelona","Jorba",827,41.60049,1.546195
"Catalunya","Barcelona","La Llacuna",982,41.39901,2.197244
"Catalunya","Barcelona","La Llagosta",13085,41.51321,2.193246
"Catalunya","Barcelona","Llinars del Vallès",10740,41.63935,2.404427
"Catalunya","Barcelona","Lliçà d'Amunt",16253,41.60865,2.239443
"Catalunya","Barcelona","Lliçà de Vall",6861,41.59081,2.242733
"Catalunya","Barcelona","Lluçà",288,42.05048,2.035043
"Catalunya","Barcelona","Malgrat de Mar",19377,41.64655,2.741634
"Catalunya","Barcelona","Malla",272,41.88734,2.235119
"Catalunya","Barcelona","Manlleu",21348,41.99995,2.284165
"Catalunya","Barcelona","Manresa",80201,41.72517,1.823353
"Catalunya","Barcelona","Martorell",28507,41.47355,1.927682
"Catalunya","Barcelona","Martorelles",4987,41.52577,2.242882
"Catalunya","Barcelona","Les Masies de Roda",750,41.98956,2.317853
"Catalunya","Barcelona","Les Masies de Voltregà",3292,42.02114,2.234093
"Catalunya","Barcelona","El Masnou",24479,41.47931,2.319244
"Catalunya","Barcelona","Masquefa",10038,41.50307,1.811926
"Catalunya","Barcelona","Matadepera",9815,41.5967,2.026747
"Catalunya","Barcelona","Mataró",131798,41.5375,2.445278
"Catalunya","Barcelona","Mediona",2637,41.48333,1.616667
"Catalunya","Barcelona","Molins de Rei",26948,41.41392,2.015836
"Catalunya","Barcelona","Mollet del Vallès",52283,41.54052,2.213529
"Catalunya","Barcelona","Montcada i Reixac",37153,41.48231,2.188504
"Catalunya","Barcelona","Montgat",12625,41.46645,2.279088
"Catalunya","Barcelona","Monistrol de Montserrat",3198,41.60986,1.843154
"Catalunya","Barcelona","Monistrol de Calders",761,41.76059,2.014233
"Catalunya","Barcelona","Muntanyola",712,41.87836,2.177301
"Catalunya","Barcelona","Montclar",132,42.01806,1.764081
"Catalunya","Barcelona","Montesquiu",1099,42.11001,2.210174
"Catalunya","Barcelona","Montmajor",472,42.01777,1.735123
"Catalunya","Barcelona","Montmaneu",200,41.62574,1.414676
"Catalunya","Barcelona","Figaró-Montmany",1188,41.72169,2.273113
"Catalunya","Barcelona","Montmeló",8906,41.55146,2.248465
"Catalunya","Barcelona","Montornès del Vallès",17089,41.54255,2.263779
"Catalunya","Barcelona","Montseny",380,41.76001,2.394918
"Catalunya","Barcelona","Moià",6738,41.81277,2.097428
"Catalunya","Barcelona","Mura",232,41.69948,1.976545
"Catalunya","Barcelona","Navarcles",6160,41.75158,1.903257
"Catalunya","Barcelona","Navàs",6185,41.90007,1.879363
"Catalunya","Barcelona","La Nou de Berguedà",163,42.16599,1.884765
"Catalunya","Barcelona","Òdena",3710,41.60673,1.640909
"Catalunya","Barcelona","Olvan",913,42.05732,1.905637
"Catalunya","Barcelona","Olèrdola",3946,41.32195,1.723056
"Catalunya","Barcelona","Olesa de Bonesvalls",2093,41.35301,1.849887
"Catalunya","Barcelona","Olesa de Montserrat",24677,41.5434,1.888153
"Catalunya","Barcelona","Olivella",4419,41.31034,1.812279
"Catalunya","Barcelona","Olost",1216,41.98582,2.095717
"Catalunya","Barcelona","Orís",350,42.06,2.240278
"Catalunya","Barcelona","Oristà",569,41.93243,2.060313
"Catalunya","Barcelona","Orpí",178,41.51867,1.575293
"Catalunya","Barcelona","Òrrius",805,41.55499,2.355113
"Catalunya","Barcelona","Pacs del Penedès",935,41.36156,1.669417
"Catalunya","Barcelona","Palafolls",9938,41.66497,2.749768
"Catalunya","Barcelona","Palau-solità i Plegamans",15456,41.58862,2.179233
"Catalunya","Barcelona","Pallejà",11825,41.42372,1.996701
"Catalunya","Barcelona","El Papiol",4363,41.43895,2.010686
"Catalunya","Barcelona","Parets del Vallès",18881,41.57355,2.233794
"Catalunya","Barcelona","Perafita",438,42.0416,2.107158
"Catalunya","Barcelona","Piera",17555,41.51797,1.743268
"Catalunya","Barcelona","Els Hostalets de Pierola",3231,41.53416,1.765952
"Catalunya","Barcelona","Pineda de Mar",29455,41.62751,2.689454
"Catalunya","Barcelona","El Pla del Penedès",1352,41.41798,1.71032
"Catalunya","Barcelona","La Pobla de Claramunt",2353,41.55298,1.675936
"Catalunya","Barcelona","La Pobla de Lillet",1109,42.24344,1.97473
"Catalunya","Barcelona","Polinyà",8555,41.5575,2.156243
"Catalunya","Barcelona","Pontons",518,41.41599,1.5167
"Catalunya","Barcelona","El Prat de Llobregat",66184,41.33047,2.093149
"Catalunya","Barcelona","Els Prats de Rei",553,41.7055,1.541531
"Catalunya","Barcelona","Prats de Lluçanès",2688,42.00874,2.028578
"Catalunya","Barcelona","Premià de Mar",28951,41.48958,2.356536
"Catalunya","Barcelona","Puigdàlber",629,41.40442,1.701116
"Catalunya","Barcelona","Puig-reig",4489,41.97446,1.878855
"Catalunya","Barcelona","Pujalt",210,41.71723,1.422114
"Catalunya","Barcelona","La Quar",42,42.08085,1.96163
"Catalunya","Barcelona","Rajadell",594,41.72972,1.706263
"Catalunya","Barcelona","Rellinars",920,41.63747,1.910496
"Catalunya","Barcelona","Ripollet",39462,41.49736,2.155674
"Catalunya","Barcelona","La Roca del Vallès",10962,41.59053,2.326258
"Catalunya","Barcelona","El Pont de Vilomara i Rocafort",4140,41.69987,1.870855
"Catalunya","Barcelona","Roda de Ter",6900,41.98597,2.311212
"Catalunya","Barcelona","Rubí",81532,41.49233,2.031262
"Catalunya","Barcelona","Rubió",237,41.64328,1.569087
"Catalunya","Barcelona","Sabadell",222177,41.54862,2.107421
"Catalunya","Barcelona","Sagàs",153,42.05066,1.961669
"Catalunya","Barcelona","Sant Pere Sallavinera",158,41.73657,1.573176
"Catalunya","Barcelona","Saldes",301,42.22893,1.735597
"Catalunya","Barcelona","Sallent",6927,41.8242,1.89493
"Catalunya","Barcelona","Santpedor",7716,41.78357,1.839129
"Catalunya","Barcelona","Sant Iscle de Vallalta",1458,41.62377,2.569127
"Catalunya","Barcelona","Sant Adrià de Besòs",38490,41.4306,2.218239
"Catalunya","Barcelona","Sant Agustí de Lluçanès",108,42.08546,2.127825
"Catalunya","Barcelona","Sant Andreu de la Barca",27062,41.44718,1.975935
"Catalunya","Barcelona","Sant Andreu de Llavaneres",11933,41.57237,2.482367
"Catalunya","Barcelona","Sant Antoni de Vilamajor",6668,41.6737,2.400859
"Catalunya","Barcelona","Sant Bartomeu del Grau",943,41.98076,2.175598
"Catalunya","Barcelona","Sant Boi de Llobregat",84831,41.34739,2.043103
"Catalunya","Barcelona","Sant Boi de Lluçanès",575,42.05888,2.151663
"Catalunya","Barcelona","Sant Celoni",18761,41.69019,2.49167
"Catalunya","Barcelona","Sant Cebrià de Vallalta",3828,41.61977,2.600307
"Catalunya","Barcelona","Sant Climent de Llobregat",4182,41.33731,1.99578
"Catalunya","Barcelona","Sant Cugat del Vallès",98621,41.47186,2.082139
"Catalunya","Barcelona","Sant Cugat Sesgarrigues",1031,41.36441,1.753613
"Catalunya","Barcelona","Sant Esteve de Palautordera",3080,41.70347,2.435386
"Catalunya","Barcelona","Sant Esteve Sesrovires",8060,41.49455,1.872799
"Catalunya","Barcelona","Sant Fost de Campsentelles",9227,41.51452,2.234791
"Catalunya","Barcelona","Sant Feliu de Codines",6661,41.68893,2.164804
"Catalunya","Barcelona","Sant Feliu de Llobregat",46554,41.38094,2.045171
"Catalunya","Barcelona","Sant Feliu Sasserra",629,41.94477,2.02247
"Catalunya","Barcelona","Sant Fruitós de Bages",9248,41.74952,1.872885
"Catalunya","Barcelona","Vilassar de Dalt",9281,41.51669,2.358552
"Catalunya","Barcelona","Sant Hipòlit de Voltregà",3687,42.01554,2.236254
"Catalunya","Barcelona","Sant Jaume de Frontanyà",26,42.18718,2.02394
"Catalunya","Barcelona","Sant Joan Despí",35083,41.36769,2.056065
"Catalunya","Barcelona","Sant Joan de Vilatorrada",11017,41.74549,1.805543
"Catalunya","Barcelona","Vilassar de Mar",21162,41.50181,2.390873
"Catalunya","Barcelona","Sant Julià de Vilatorta",3297,41.92231,2.324351
"Catalunya","Barcelona","Sant Just Desvern",20881,41.38576,2.075544
"Catalunya","Barcelona","Sant Llorenç d'Hortons",2617,41.46485,1.824399
"Catalunya","Barcelona","Sant Llorenç Savall",2586,41.67982,2.05931
"Catalunya","Barcelona","Sant Martí de Centelles",1259,41.76633,2.20482
"Catalunya","Barcelona","Sant Martí d'Albars",140,42.02824,2.073759
"Catalunya","Barcelona","Sant Martí de Tous",1275,41.56214,1.522934
"Catalunya","Barcelona","Sant Martí Sarroca",3391,41.38578,1.611423
"Catalunya","Barcelona","Sant Martí Sesgueioles",360,41.7021,1.48792
"Catalunya","Barcelona","Sant Mateu de Bages",637,41.79689,1.732737
"Catalunya","Barcelona","Premià de Dalt",10594,41.50655,2.343058
"Catalunya","Barcelona","Sant Pere de Ribes",32121,41.2591,1.775418
"Catalunya","Barcelona","Sant Pere de Riudebitlles",2497,41.45347,1.701628
"Catalunya","Barcelona","Sant Pere de Torelló",2592,42.07564,2.296003
"Catalunya","Barcelona","Sant Pere de Vilamajor",4941,41.68499,2.390498
"Catalunya","Barcelona","Sant Pol de Mar",5834,41.59945,2.615872
"Catalunya","Barcelona","Sant Quintí de Mediona",2504,41.46383,1.666462
"Catalunya","Barcelona","Sant Quirze de Besora",2127,42.10094,2.216611
"Catalunya","Barcelona","Sant Quirze del Vallès",20161,41.5308,2.086581
"Catalunya","Barcelona","Sant Quirze Safaja",669,41.72732,2.153063
"Catalunya","Barcelona","Sant Sadurní d'Anoia",12915,41.42535,1.785673
"Catalunya","Barcelona","Sant Sadurní d'Osormort",84,41.90321,2.381448
"Catalunya","Barcelona","Marganell",308,41.64039,1.792257
"Catalunya","Barcelona","Santa Cecília de Voltregà",192,41.99306,2.219902
"Catalunya","Barcelona","Santa Coloma de Cervelló",8335,41.36684,2.015083
"Catalunya","Barcelona","Santa Coloma de Gramenet",121203,41.45107,2.208978
"Catalunya","Barcelona","Santa Eugènia de Berga",2308,41.9003,2.282697
"Catalunya","Barcelona","Santa Eulàlia de Riuprimer",1487,41.9108,2.188852
"Catalunya","Barcelona","Santa Eulàlia de Ronçana",7911,41.65306,2.226111
"Catalunya","Barcelona","Santa Fe del Penedès",360,41.38438,1.721198
"Catalunya","Barcelona","Santa Margarida de Montbui",10549,41.55719,1.604131
"Catalunya","Barcelona","Santa Margarida i els Monjos",7736,41.32087,1.662838
"Catalunya","Barcelona","Barberà del Vallès",33575,41.51596,2.124723
"Catalunya","Barcelona","Santa Maria de Besora",164,42.12696,2.258088
"Catalunya","Barcelona","Santa Maria de Merlès",175,42.0011,1.977791
"Catalunya","Barcelona","Santa Maria de Martorelles",873,41.51955,2.25424
"Catalunya","Barcelona","Santa Maria de Miralles",137,41.51813,1.525129
"Catalunya","Barcelona","Santa Maria d'Oló",1077,41.87207,2.035291
"Catalunya","Barcelona","Santa Maria de Palautordera",10008,41.6932,2.446227
"Catalunya","Barcelona","Santa Perpètua de Mogoda",25960,41.53486,2.178988
"Catalunya","Barcelona","Santa Susanna",4023,41.64069,2.716872
"Catalunya","Barcelona","Sant Vicenç de Castellet",10131,41.66581,1.863849
"Catalunya","Barcelona","Sant Vicenç dels Horts",28568,41.39362,2.00987
"Catalunya","Barcelona","Sant Vicenç de Montalt",6712,41.58262,2.509926
"Catalunya","Barcelona","Sant Vicenç de Torelló",2092,42.06234,2.272757
"Catalunya","Barcelona","Cerdanyola del Vallès",58100,41.49137,2.140769
"Catalunya","Barcelona","Sentmenat",9553,41.61163,2.134932
"Catalunya","Barcelona","Cercs",1193,42.15168,1.856175
"Catalunya","Barcelona","Seva",3798,41.83733,2.281063
"Catalunya","Barcelona","Sitges",32405,41.23478,1.811222
"Catalunya","Barcelona","Sobremunt",101,42.03461,2.168373
"Catalunya","Barcelona","Sora",219,42.11072,2.159851
"Catalunya","Barcelona","Subirats",3281,41.38472,1.798056
"Catalunya","Barcelona","Súria",6090,41.83179,1.750768
"Catalunya","Barcelona","Tavèrnoles",341,41.95227,2.326051
"Catalunya","Barcelona","Tagamanent",339,41.73962,2.265759
"Catalunya","Barcelona","Talamanca",212,41.73544,1.977921
"Catalunya","Barcelona","Taradell",6844,41.87363,2.287192
"Catalunya","Barcelona","Terrassa",228708,41.56095,2.01044
"Catalunya","Barcelona","Tavertet",131,41.99606,2.419322
"Catalunya","Barcelona","Teià",6818,41.49969,2.320616
"Catalunya","Barcelona","Tiana",9305,41.48324,2.26898
"Catalunya","Barcelona","Tona",8511,41.84785,2.227755
"Catalunya","Barcelona","Tordera",18780,41.70206,2.71902
"Catalunya","Barcelona","Torelló",15093,42.04824,2.26272
"Catalunya","Barcelona","La Torre de Claramunt",4122,41.53589,1.661657
"Catalunya","Barcelona","Torrelavit",1509,41.44635,1.729874
"Catalunya","Barcelona","Torrelles de Foix",2657,41.3891,1.567663
"Catalunya","Barcelona","Torrelles de Llobregat",6155,41.35389,1.97666
"Catalunya","Barcelona","Ullastrell",2176,41.52707,1.956931
"Catalunya","Barcelona","Vacarisses",7563,41.60627,1.919159
"Catalunya","Barcelona","Vallbona d'Anoia",1406,41.51962,1.708936
"Catalunya","Barcelona","Vallcebre",271,42.20394,1.818234
"Catalunya","Barcelona","Vallgorguina",3198,41.64832,2.509912
"Catalunya","Barcelona","Vallirana",15985,41.38872,1.932255
"Catalunya","Barcelona","Vallromanes",2742,41.5318,2.298065
"Catalunya","Barcelona","Veciana",172,41.65651,1.487973
"Catalunya","Barcelona","Vic",49530,41.93029,2.25435
"Catalunya","Barcelona","Vilada",443,42.13676,1.931635
"Catalunya","Barcelona","Viladecavalls",7802,41.55547,1.954526
"Catalunya","Barcelona","Viladecans",67348,41.31601,2.020199
"Catalunya","Barcelona","Vilanova del Camí",12844,41.57373,1.642982
"Catalunya","Barcelona","Vilanova de Sau",317,41.94754,2.384898
"Catalunya","Barcelona","Vilobí del Penedès",1150,41.38835,1.662088
"Catalunya","Barcelona","Vilafranca del Penedès",41504,41.34509,1.699849
"Catalunya","Barcelona","Vilalba Sasserra",780,41.65272,2.441072
"Catalunya","Barcelona","Vilanova i la Geltrú",70418,41.22415,1.725568
"Catalunya","Barcelona","Viver i Serrateix",175,41.94583,1.775928
"Catalunya","Barcelona","Rupit i Pruit",281,42.02406,2.465066
"Catalunya","Barcelona","Vilanova del Vallès",5632,41.55407,2.288895
"Catalunya","Barcelona","Sant Julià de Cerdanyola",232,42.22306,1.891119
"Catalunya","Barcelona","Badia del Vallès",13118,41.50871,2.114864
"Catalunya","Barcelona","La Palma de Cervelló",3044,41.41331,1.967154
"Castilla León","Burgos","Abajas",28,42.62347,-3.580227
"Castilla León","Burgos","Adrada de Haza",205,41.59426,-3.821794
"Castilla León","Burgos","Aguas Cándidas",59,42.71609,-3.501816
"Castilla León","Burgos","Aguilar de Bureba",50,42.59014,-3.328738
"Castilla León","Burgos","Albillos",214,42.27642,-3.790607
"Castilla León","Burgos","Alcocero de Mola",41,42.47314,-3.357422
"Castilla León","Burgos","Alfoz de Bricia",68,42.89667,-3.879167
"Castilla León","Burgos","Alfoz de Santa Gadea",101,42.95555,-3.950556
"Castilla León","Burgos","Altable",47,42.60335,-3.077159
"Castilla León","Burgos","Los Altos",186,42.80861,-3.631667
"Castilla León","Burgos","Ameyugo",108,42.65606,-3.061546
"Castilla León","Burgos","Anguix",156,41.75338,-3.931955
"Castilla León","Burgos","Aranda de Duero",33757,41.67171,-3.686569
"Castilla León","Burgos","Arandilla",155,41.73776,-3.428753
"Castilla León","Burgos","Arauzo de Miel",274,41.86012,-3.38779
"Castilla León","Burgos","Arauzo de Salce",46,41.81974,-3.412258
"Castilla León","Burgos","Arauzo de Torre",61,41.79853,-3.422723
"Castilla León","Burgos","Arcos",1835,42.26453,-3.755465
"Castilla León","Burgos","Arenillas de Riopisuerga",166,42.35673,-4.233235
"Castilla León","Burgos","Arija",115,42.99424,-3.944695
"Castilla León","Burgos","Arlanzón",424,42.3228,-3.458243
"Castilla León","Burgos","Arraya de Oca",53,42.41536,-3.397841
"Castilla León","Burgos","Atapuerca",180,42.37701,-3.507772
"Castilla León","Burgos","Los Ausines",165,42.22558,-3.597602
"Castilla León","Burgos","Avellanosa de Muñó",96,41.98373,-3.824701
"Castilla León","Burgos","Bahabón de Esgueva",84,41.86199,-3.729234
"Castilla León","Burgos","Los Balbases",302,42.215,-4.062593
"Castilla León","Burgos","Baños de Valdearados",318,41.76987,-3.556313
"Castilla León","Burgos","Bañuelos de Bureba",31,42.50111,-3.280796
"Castilla León","Burgos","Barbadillo de Herreros",104,42.21489,-3.150055
"Castilla León","Burgos","Barbadillo del Mercado",134,42.03931,-3.358344
"Castilla León","Burgos","Barbadillo del Pez",66,42.11964,-3.228537
"Castilla León","Burgos","Barrio de Muñó",32,42.17502,-4.007208
"Castilla León","Burgos","Los Barrios de Bureba",178,42.64565,-3.391559
"Castilla León","Burgos","Barrios de Colina",55,42.39611,-3.459788
"Castilla León","Burgos","Basconcillos del Tozo",294,42.70267,-3.989552
"Castilla León","Burgos","Bascuñana",18,42.42544,-3.082017
"Castilla León","Burgos","Belbimbre",54,42.16871,-4.012369
"Castilla León","Burgos","Belorado",1834,42.42041,-3.189796
"Castilla León","Burgos","Berberana",48,42.91988,-3.060073
"Castilla León","Burgos","Berlangas de Roa",203,41.6894,-3.87417
"Castilla León","Burgos","Berzosa de Bureba",26,42.62693,-3.266128
"Castilla León","Burgos","Bozoó",102,42.72657,-3.08537
"Castilla León","Burgos","Brazacorta",45,41.71716,-3.367153
"Castilla León","Burgos","Briviesca",6560,42.55029,-3.323369
"Castilla León","Burgos","Bugedo",189,42.64932,-3.017947
"Castilla León","Burgos","Buniel",612,42.30971,-3.823738
"Castilla León","Burgos","Burgos",175895,42.34087,-3.699731
"Castilla León","Burgos","Busto de Bureba",143,42.65941,-3.264715
"Castilla León","Burgos","Cabañes de Esgueva",149,41.8313,-3.785393
"Castilla León","Burgos","Cabezón de la Sierra",36,41.93455,-3.242159
"Castilla León","Burgos","Cavia",248,42.28385,-3.845257
"Castilla León","Burgos","Caleruega",400,41.82503,-3.486718
"Castilla León","Burgos","Campillo de Aranda",171,41.61026,-3.730296
"Castilla León","Burgos","Campolara",48,42.11951,-3.427225
"Castilla León","Burgos","Canicosa de la Sierra",424,41.93606,-3.042048
"Castilla León","Burgos","Cantabrana",23,42.73465,-3.4672
"Castilla León","Burgos","Carazo",39,41.96952,-3.353925
"Castilla León","Burgos","Carcedo de Bureba",37,42.5783,-3.498399
"Castilla León","Burgos","Carcedo de Burgos",484,42.2861,-3.623026
"Castilla León","Burgos","Cardeñadijo",1430,42.2997,-3.665262
"Castilla León","Burgos","Cardeñajimeno",1169,42.33102,-3.621846
"Castilla León","Burgos","Cardeñuela Riopico",111,42.35997,-3.55778
"Castilla León","Burgos","Carrias",24,42.4817,-3.283208
"Castilla León","Burgos","Cascajares de Bureba",27,42.67904,-3.237395
"Castilla León","Burgos","Cascajares de la Sierra",27,42.06187,-3.39957
"Castilla León","Burgos","Castellanos de Castro",46,42.32857,-4.03372
"Castilla León","Burgos","Castildelgado",35,42.43724,-3.084511
"Castilla León","Burgos","Castil de Peones",28,42.48307,-3.38459
"Castilla León","Burgos","Castrillo de la Reina",158,41.98731,-3.237118
"Castilla León","Burgos","Castrillo de la Vega",621,41.65073,-3.781646
"Castilla León","Burgos","Castrillo del Val",823,42.31421,-3.584872
"Castilla León","Burgos","Castrillo de Riopisuerga",58,42.51493,-4.252292
"Castilla León","Burgos","Castrojeriz",778,42.28828,-4.138836
"Castilla León","Burgos","Cayuela",189,42.27256,-3.819528
"Castilla León","Burgos","Cebrecos",58,41.9832,-3.596634
"Castilla León","Burgos","Celada del Camino",90,42.26265,-3.933845
"Castilla León","Burgos","Cerezo de Río Tirón",490,42.49125,-3.135633
"Castilla León","Burgos","Cerratón de Juarros",45,42.42218,-3.373947
"Castilla León","Burgos","Ciadoncha",70,42.1606,-3.9348
"Castilla León","Burgos","Cillaperlata",30,42.78268,-3.358483
"Castilla León","Burgos","Cilleruelo de Abajo",209,41.88422,-3.795598
"Castilla León","Burgos","Cilleruelo de Arriba",49,41.90474,-3.660519
"Castilla León","Burgos","Ciruelos de Cervera",99,41.90557,-3.530057
"Castilla León","Burgos","Cogollos",677,42.20072,-3.699386
"Castilla León","Burgos","Condado de Treviño",1489,42.7349,-2.74691
"Castilla León","Burgos","Contreras",87,42.02149,-3.410147
"Castilla León","Burgos","Coruña del Conde",100,41.76587,-3.391761
"Castilla León","Burgos","Covarrubias",505,42.05919,-3.520237
"Castilla León","Burgos","Cubillo del Campo",101,42.16857,-3.610348
"Castilla León","Burgos","Cubo de Bureba",101,42.64042,-3.206735
"Castilla León","Burgos","La Cueva de Roa",89,41.66653,-3.939688
"Castilla León","Burgos","Cuevas de San Clemente",45,42.12992,-3.568581
"Castilla León","Burgos","Encío",41,42.66777,-3.084554
"Castilla León","Burgos","Espinosa de Cervera",85,41.89632,-3.468393
"Castilla León","Burgos","Espinosa del Camino",42,42.40644,-3.281149
"Castilla León","Burgos","Espinosa de los Monteros",1648,43.07687,-3.552301
"Castilla León","Burgos","Estépar",634,42.2767,-3.89849
"Castilla León","Burgos","Fontioso",54,41.94261,-3.739049
"Castilla León","Burgos","Frandovínez",96,42.30937,-3.838241
"Castilla León","Burgos","Fresneda de la Sierra Tirón",97,42.31503,-3.13507
"Castilla León","Burgos","Fresneña",66,42.41425,-3.134803
"Castilla León","Burgos","Fresnillo de las Dueñas",693,41.64692,-3.644559
"Castilla León","Burgos","Fresno de Río Tirón",160,42.4602,-3.17496
"Castilla León","Burgos","Fresno de Rodilla",49,42.42011,-3.485178
"Castilla León","Burgos","Frías",270,42.76148,-3.294353
"Castilla León","Burgos","Fuentebureba",56,42.63403,-3.234902
"Castilla León","Burgos","Fuentecén",237,41.62859,-3.869621
"Castilla León","Burgos","Fuentelcésped",273,41.59122,-3.640737
"Castilla León","Burgos","Fuentelisendo",99,41.6224,-3.901975
"Castilla León","Burgos","Fuentemolinos",91,41.60551,-3.849833
"Castilla León","Burgos","Fuentenebro",136,41.52533,-3.75369
"Castilla León","Burgos","Fuentespina",816,41.63168,-3.686191
"Castilla León","Burgos","Galbarros",27,42.5279,-3.437926
"Castilla León","Burgos","La Gallega",39,41.89865,-3.26404
"Castilla León","Burgos","Grijalba",112,42.42995,-4.118997
"Castilla León","Burgos","Grisaleña",53,42.59092,-3.26404
"Castilla León","Burgos","Gumiel de Izán",584,41.7734,-3.688242
"Castilla León","Burgos","Gumiel de Mercado",380,41.75608,-3.802108
"Castilla León","Burgos","Hacinas",149,41.9852,-3.28705
"Castilla León","Burgos","Haza",34,41.62142,-3.829452
"Castilla León","Burgos","Hontanas",71,42.31303,-4.045938
"Castilla León","Burgos","Hontangas",99,41.58269,-3.796304
"Castilla León","Burgos","Hontoria de la Cantera",174,42.18913,-3.643586
"Castilla León","Burgos","Hontoria del Pinar",610,41.8486,-3.162302
"Castilla León","Burgos","Hontoria de Valdearados",164,41.74445,-3.520228
"Castilla León","Burgos","Las Hormazas",99,42.515,-3.896111
"Castilla León","Burgos","Hornillos del Camino",46,42.33831,-3.925357
"Castilla León","Burgos","La Horra",303,41.74088,-3.875266
"Castilla León","Burgos","Hortigüela",107,42.0681,-3.425503
"Castilla León","Burgos","Hoyales de Roa",212,41.65891,-3.862995
"Castilla León","Burgos","Huérmeces",153,42.52169,-3.77164
"Castilla León","Burgos","Huerta de Arriba",128,42.11634,-3.082139
"Castilla León","Burgos","Huerta de Rey",881,41.83988,-3.349127
"Castilla León","Burgos","Humada",116,42.66822,-4.083444
"Castilla León","Burgos","Hurones",53,42.40615,-3.613922
"Castilla León","Burgos","Ibeas de Juarros",1445,42.33124,-3.535495
"Castilla León","Burgos","Ibrillos",29,42.45407,-3.0831
"Castilla León","Burgos","Iglesiarrubia",45,41.97432,-3.846759
"Castilla León","Burgos","Iglesias",141,42.29795,-3.990041
"Castilla León","Burgos","Isar",284,42.36185,-3.930288
"Castilla León","Burgos","Itero del Castillo",71,42.28941,-4.244414
"Castilla León","Burgos","Jaramillo de la Fuente",47,42.11487,-3.312734
"Castilla León","Burgos","Jaramillo Quemado",10,42.08483,-3.360913
"Castilla León","Burgos","Junta de Traslaloma",122,43.03695,-3.389445
"Castilla León","Burgos","Junta de Villalba de Losa",78,42.93537,-3.087131
"Castilla León","Burgos","Jurisdicción de Lara",41,42.13472,-3.449722
"Castilla León","Burgos","Jurisdicción de San Zadornil",66,42.84143,-3.157743
"Castilla León","Burgos","Lerma",2556,42.02583,-3.75596
"Castilla León","Burgos","Llano de Bureba",49,42.62436,-3.459093
"Castilla León","Burgos","Madrigal del Monte",143,42.14449,-3.675512
"Castilla León","Burgos","Madrigalejo del Monte",176,42.12458,-3.725459
"Castilla León","Burgos","Mahamud",105,42.11988,-3.94084
"Castilla León","Burgos","Mambrilla de Castrejón",107,41.66708,-3.984727
"Castilla León","Burgos","Mambrillas de Lara",56,42.09437,-3.461727
"Castilla León","Burgos","Mamolar",28,41.92689,-3.361871
"Castilla León","Burgos","Manciles",21,42.4558,-3.944278
"Castilla León","Burgos","Mazuela",56,42.20672,-3.918213
"Castilla León","Burgos","Mecerreyes",188,42.0954,-3.573741
"Castilla León","Burgos","Medina de Pomar",5997,42.92837,-3.487223
"Castilla León","Burgos","Melgar de Fernamental",1513,42.40352,-4.244519
"Castilla León","Burgos","Merindad de Cuesta-Urria",270,42.9,-3.391667
"Castilla León","Burgos","Merindad de Montija",736,43.09207,-3.43402
"Castilla León","Burgos","Merindad de Sotoscueva",412,43.05877,-3.642048
"Castilla León","Burgos","Merindad de Valdeporres",421,43.02056,-3.768611
"Castilla León","Burgos","Merindad de Valdivielso",401,42.82,-3.536
"Castilla León","Burgos","Milagros",415,41.57555,-3.699167
"Castilla León","Burgos","Miranda de Ebro",36018,42.68734,-2.947593
"Castilla León","Burgos","Miraveche",95,42.67471,-3.19961
"Castilla León","Burgos","Modúbar de la Emparedada",769,42.26012,-3.659911
"Castilla León","Burgos","Monasterio de la Sierra",40,42.05131,-3.193589
"Castilla León","Burgos","Monasterio de Rodilla",169,42.45771,-3.468888
"Castilla León","Burgos","Moncalvillo",76,41.9552,-3.199341
"Castilla León","Burgos","Monterrubio de la Demanda",56,42.1481,-3.112634
"Castilla León","Burgos","Montorio",149,42.58467,-3.776581
"Castilla León","Burgos","Moradillo de Roa",170,41.55196,-3.791871
"Castilla León","Burgos","Nava de Roa",199,41.61383,-3.965231
"Castilla León","Burgos","Navas de Bureba",24,42.68237,-3.32677
"Castilla León","Burgos","Nebreda",55,41.96859,-3.63392
"Castilla León","Burgos","Neila",119,42.05984,-2.997184
"Castilla León","Burgos","Olmedillo de Roa",179,41.78319,-3.934045
"Castilla León","Burgos","Olmillos de Muñó",40,42.20261,-3.940343
"Castilla León","Burgos","Oña",951,42.73478,-3.414072
"Castilla León","Burgos","Oquillas",49,41.8317,-3.703652
"Castilla León","Burgos","Orbaneja Riopico",350,42.36023,-3.583582
"Castilla León","Burgos","Padilla de Abajo",67,42.40781,-4.176731
"Castilla León","Burgos","Padilla de Arriba",92,42.43821,-4.194777
"Castilla León","Burgos","Padrones de Bureba",60,42.7049,-3.532114
"Castilla León","Burgos","Palacios de la Sierra",675,41.96359,-3.126263
"Castilla León","Burgos","Palacios de Riopisuerga",18,42.34376,-4.256989
"Castilla León","Burgos","Palazuelos de la Sierra",93,42.21181,-3.459925
"Castilla León","Burgos","Palazuelos de Muñó",54,42.19647,-3.988374
"Castilla León","Burgos","Pampliega",291,42.20591,-3.987587
"Castilla León","Burgos","Pancorbo",437,42.63524,-3.110586
"Castilla León","Burgos","Pardilla",102,41.55063,-3.710233
"Castilla León","Burgos","Partido de la Sierra en Tobalina",81,42.71667,-3.233333
"Castilla León","Burgos","Pedrosa de Duero",460,41.71184,-3.987098
"Castilla León","Burgos","Pedrosa del Páramo",89,42.44224,-3.972769
"Castilla León","Burgos","Pedrosa del Príncipe",163,42.24924,-4.198915
"Castilla León","Burgos","Pedrosa de Río Úrbel",243,42.40971,-3.821324
"Castilla León","Burgos","Peñaranda de Duero",465,41.68876,-3.480297
"Castilla León","Burgos","Peral de Arlanza",170,42.07603,-4.077512
"Castilla León","Burgos","Piérnigas",39,42.59008,-3.412804
"Castilla León","Burgos","Pineda de la Sierra",94,42.21596,-3.29737
"Castilla León","Burgos","Pineda Trasmonte",98,41.90881,-3.695628
"Castilla León","Burgos","Pinilla de los Barruecos",98,41.91891,-3.305166
"Castilla León","Burgos","Pinilla de los Moros",33,42.06802,-3.327312
"Castilla León","Burgos","Pinilla Trasmonte",161,41.87348,-3.620033
"Castilla León","Burgos","Poza de la Sal",283,42.66542,-3.501162
"Castilla León","Burgos","Prádanos de Bureba",56,42.5023,-3.347642
"Castilla León","Burgos","Pradoluengo",1070,42.3237,-3.200787
"Castilla León","Burgos","Presencio",207,42.18675,-3.901966
"Castilla León","Burgos","La Puebla de Arganzón",557,42.76628,-2.831537
"Castilla León","Burgos","Puentedura",122,42.04167,-3.582952
"Castilla León","Burgos","Quemada",238,41.70045,-3.574928
"Castilla León","Burgos","Quintanabureba",31,42.58692,-3.366666
"Castilla León","Burgos","Quintana del Pidio",149,41.7596,-3.751569
"Castilla León","Burgos","Quintanaélez",47,42.6687,-3.299189
"Castilla León","Burgos","Quintanaortuño",284,42.44994,-3.683778
"Castilla León","Burgos","Quintanapalla",120,42.40835,-3.534245
"Castilla León","Burgos","Quintanar de la Sierra",1513,41.98133,-3.040702
"Castilla León","Burgos","Quintanavides",64,42.48142,-3.424978
"Castilla León","Burgos","Quintanilla de la Mata",108,41.98862,-3.76779
"Castilla León","Burgos","Quintanilla del Coco",50,41.97923,-3.516723
"Castilla León","Burgos","Las Quintanillas",388,42.37259,-3.843971
"Castilla León","Burgos","Quintanilla San García",68,42.54919,-3.193922
"Castilla León","Burgos","Quintanilla Vivar",885,42.41479,-3.690509
"Castilla León","Burgos","Rabanera del Pinar",99,41.89267,-3.19425
"Castilla León","Burgos","Rábanos",79,42.3198,-3.270114
"Castilla León","Burgos","Rabé de las Calzadas",250,42.34017,-3.83422
"Castilla León","Burgos","Rebolledo de la Torre",92,42.68719,-4.227346
"Castilla León","Burgos","Redecilla del Camino",93,42.43816,-3.065058
"Castilla León","Burgos","Redecilla del Campo",67,42.46679,-3.115167
"Castilla León","Burgos","Regumiel de la Sierra",301,41.95593,-2.987816
"Castilla León","Burgos","Reinoso",18,42.51133,-3.381955
"Castilla León","Burgos","Retuerta",59,42.02995,-3.507748
"Castilla León","Burgos","La Revilla y Ahedo",101,41.99827,-3.351927
"Castilla León","Burgos","Revilla del Campo",94,42.21154,-3.5374
"Castilla León","Burgos","Revillarruz",634,42.23075,-3.6538
"Castilla León","Burgos","Revilla Vallejera",115,42.14722,-4.134238
"Castilla León","Burgos","Rezmondo",17,42.51596,-4.238618
"Castilla León","Burgos","Riocavado de la Sierra",55,42.15218,-3.198172
"Castilla León","Burgos","Roa",2244,41.69711,-3.928005
"Castilla León","Burgos","Rojas",60,42.57769,-3.4409
"Castilla León","Burgos","Royuela de Río Franco",170,41.99681,-3.956869
"Castilla León","Burgos","Rubena",217,42.38781,-3.574296
"Castilla León","Burgos","Rublacedo de Abajo",33,42.55323,-3.502227
"Castilla León","Burgos","Rucandio",72,42.75172,-3.54248
"Castilla León","Burgos","Salas de Bureba",129,42.69194,-3.473988
"Castilla León","Burgos","Salas de los Infantes",1984,42.02327,-3.286438
"Castilla León","Burgos","Saldaña de Burgos",201,42.25925,-3.697733
"Castilla León","Burgos","Salinillas de Bureba",48,42.55315,-3.386741
"Castilla León","Burgos","San Adrián de Juarros",86,42.2742,-3.475125
"Castilla León","Burgos","San Juan del Monte",152,41.6844,-3.521135
"Castilla León","Burgos","San Mamés de Burgos",310,42.33744,-3.794107
"Castilla León","Burgos","San Martín de Rubiales",139,41.64256,-3.993453
"Castilla León","Burgos","San Millán de Lara",61,42.13653,-3.345795
"Castilla León","Burgos","Santa Cecilia",105,42.05219,-3.803176
"Castilla León","Burgos","Santa Cruz de la Salceda",134,41.59478,-3.594756
"Castilla León","Burgos","Santa Cruz del Valle Urbión",103,42.30286,-3.22192
"Castilla León","Burgos","Santa Gadea del Cid",161,42.71543,-3.059203
"Castilla León","Burgos","Santa Inés",155,42.03945,-3.702686
"Castilla León","Burgos","Santa María del Campo",523,42.13218,-3.974421
"Castilla León","Burgos","Santa María del Invierno",67,42.44278,-3.437732
"Castilla León","Burgos","Santa María del Mercadillo",108,41.85995,-3.559022
"Castilla León","Burgos","Santa Olalla de Bureba",38,42.47622,-3.440882
"Castilla León","Burgos","Santibáñez de Esgueva",77,41.83353,-3.75887
"Castilla León","Burgos","Santibáñez del Val",70,41.97408,-3.480564
"Castilla León","Burgos","Santo Domingo de Silos",247,41.96238,-3.419734
"Castilla León","Burgos","San Vicente del Valle",28,42.3372,-3.162195
"Castilla León","Burgos","Sargentes de la Lora",133,42.76923,-3.872826
"Castilla León","Burgos","Sarracín",261,42.25746,-3.685354
"Castilla León","Burgos","Sasamón",912,42.41784,-4.043491
"Castilla León","Burgos","La Sequera de Haza",27,41.56364,-3.817178
"Castilla León","Burgos","Solarana",77,41.97002,-3.660142
"Castilla León","Burgos","Sordillos",22,42.46181,-4.107079
"Castilla León","Burgos","Sotillo de la Ribera",470,41.77686,-3.826122
"Castilla León","Burgos","Sotragero",301,42.40995,-3.713181
"Castilla León","Burgos","Sotresgudo",420,42.57833,-4.177177
"Castilla León","Burgos","Susinos del Páramo",118,42.47124,-3.925125
"Castilla León","Burgos","Tamarón",55,42.27272,-3.990991
"Castilla León","Burgos","Tardajos",864,42.34735,-3.819411
"Castilla León","Burgos","Tejada",35,41.95241,-3.536148
"Castilla León","Burgos","Terradillos de Esgueva",64,41.81919,-3.842888
"Castilla León","Burgos","Tinieblas de la Sierra",23,42.17256,-3.363317
"Castilla León","Burgos","Tobar",27,42.48387,-3.938603
"Castilla León","Burgos","Tordómar",298,42.04587,-3.864727
"Castilla León","Burgos","Torrecilla del Monte",79,42.09386,-3.694269
"Castilla León","Burgos","Torregalindo",123,41.58224,-3.753572
"Castilla León","Burgos","Torrelara",32,42.16608,-3.516533
"Castilla León","Burgos","Torrepadre",65,42.04362,-3.936996
"Castilla León","Burgos","Torresandino",574,41.82946,-3.910012
"Castilla León","Burgos","Tórtoles de Esgueva",387,41.81652,-4.020943
"Castilla León","Burgos","Tosantos",53,42.41386,-3.243547
"Castilla León","Burgos","Trespaderne",713,42.8019,-3.391455
"Castilla León","Burgos","Tubilla del Agua",128,42.70913,-3.803644
"Castilla León","Burgos","Tubilla del Lago",171,41.80146,-3.586656
"Castilla León","Burgos","Úrbel del Castillo",58,42.62002,-3.843711
"Castilla León","Burgos","Vadocondes",364,41.63945,-3.573707
"Castilla León","Burgos","Valdeande",98,41.83434,-3.527793
"Castilla León","Burgos","Valdezate",121,41.60155,-3.930578
"Castilla León","Burgos","Valdorros",375,42.17222,-3.708914
"Castilla León","Burgos","Valmala",26,42.30535,-3.25509
"Castilla León","Burgos","Vallarta de Bureba",42,42.58826,-3.204902
"Castilla León","Burgos","Valle de Manzanedo",115,42.89895,-3.690677
"Castilla León","Burgos","Valle de Mena",4140,43.1,-3.283333
"Castilla León","Burgos","Valle de Oca",163,42.43333,-3.316667
"Castilla León","Burgos","Valle de Tobalina",863,42.792,-3.271
"Castilla León","Burgos","Valle de Valdebezana",482,42.97055,-3.785833
"Castilla León","Burgos","Valle de Valdelaguna",191,42.11555,-3.145555
"Castilla León","Burgos","Valle de Valdelucio",330,42.71822,-4.092333
"Castilla León","Burgos","Valle de Zamanzas",45,42.85333,-3.749722
"Castilla León","Burgos","Vallejera",39,42.18224,-4.151447
"Castilla León","Burgos","Valles de Palenzuela",75,42.11949,-4.076557
"Castilla León","Burgos","Valluércanes",63,42.57304,-3.119017
"Castilla León","Burgos","La Vid y Barrios",245,41.62967,-3.490485
"Castilla León","Burgos","La Vid de Bureba",24,42.63091,-3.300676
"Castilla León","Burgos","Vileña",27,42.62206,-3.323521
"Castilla León","Burgos","Viloria de Rioja",37,42.42577,-3.100409
"Castilla León","Burgos","Vilviestre del Pinar",504,41.95218,-3.078111
"Castilla León","Burgos","Villadiego",1455,42.51575,-4.010096
"Castilla León","Burgos","Villaescusa de Roa",90,41.72776,-4.016985
"Castilla León","Burgos","Villaescusa la Sombría",60,42.41518,-3.418952
"Castilla León","Burgos","Villaespasa",22,42.09895,-3.402259
"Castilla León","Burgos","Villafranca Montes de Oca",122,42.38651,-3.309347
"Castilla León","Burgos","Villafruela",143,41.91651,-3.913288
"Castilla León","Burgos","Villagalijo",52,42.34863,-3.191916
"Castilla León","Burgos","Villagonzalo Pedernales",1882,42.30135,-3.736424
"Castilla León","Burgos","Villahoz",287,42.07693,-3.912524
"Castilla León","Burgos","Villalba de Duero",706,41.6824,-3.745252
"Castilla León","Burgos","Villalbilla de Burgos",1514,42.34708,-3.779343
"Castilla León","Burgos","Villalbilla de Gumiel",74,41.80642,-3.626274
"Castilla León","Burgos","Villaldemiro",91,42.2471,-3.984738
"Castilla León","Burgos","Villalmanzo",410,42.04841,-3.741645
"Castilla León","Burgos","Villamayor de los Montes",160,42.10576,-3.766267
"Castilla León","Burgos","Villamayor de Treviño",56,42.4595,-4.119967
"Castilla León","Burgos","Villambistia",43,42.40631,-3.262168
"Castilla León","Burgos","Villamedianilla",9,42.16063,-4.146362
"Castilla León","Burgos","Villamiel de la Sierra",43,42.19164,-3.41759
"Castilla León","Burgos","Villangómez",232,42.17881,-3.776208
"Castilla León","Burgos","Villanueva de Argaño",122,42.3799,-3.93297
"Castilla León","Burgos","Villanueva de Carazo",27,41.98323,-3.324481
"Castilla León","Burgos","Villanueva de Gumiel",279,41.73724,-3.626348
"Castilla León","Burgos","Villanueva de Teba",42,42.64913,-3.162595
"Castilla León","Burgos","Villaquirán de la Puebla",46,42.2832,-4.101557
"Castilla León","Burgos","Villaquirán de los Infantes",138,42.22715,-4.008459
"Castilla León","Burgos","Villariezo",719,42.26958,-3.733035
"Castilla León","Burgos","Villasandino",178,42.37226,-4.109077
"Castilla León","Burgos","Villasur de Herreros",273,42.30821,-3.395027
"Castilla León","Burgos","Villatuelda",53,41.81512,-3.882187
"Castilla León","Burgos","Villaverde del Monte",108,42.16069,-3.814537
"Castilla León","Burgos","Villaverde-Mogina",75,42.1601,-4.050792
"Castilla León","Burgos","Villayerno Morquillas",205,42.39547,-3.639612
"Castilla León","Burgos","Villazopeque",52,42.19885,-4.016426
"Castilla León","Burgos","Villegas",79,42.46752,-4.017189
"Castilla León","Burgos","Villoruebo",63,42.16848,-3.441567
"Castilla León","Burgos","Vizcaínos",40,42.10159,-3.267122
"Castilla León","Burgos","Zael",115,42.10968,-3.823925
"Castilla León","Burgos","Zarzosa de Río Pisuerga",31,42.53617,-4.268831
"Castilla León","Burgos","Zazuar",209,41.69591,-3.555112
"Castilla León","Burgos","Zuñeda",57,42.60449,-3.226378
"Castilla León","Burgos","Quintanilla del Agua y Tordueles",335,42.0411,-3.652041
"Castilla León","Burgos","Valle de Santibáñez",479,42.48272,-3.822472
"Castilla León","Burgos","Villarcayo de Merindad de Castilla la Vieja",4047,42.9383,-3.572985
"Castilla León","Burgos","Valle de las Navas",543,42.45806,-3.638333
"Castilla León","Burgos","Valle de Sedano",409,42.71544,-3.749611
"Castilla León","Burgos","Merindad de Río Ubierna",1411,42.61666,-3.65
"Castilla León","Burgos","Alfoz de Quintanadueñas",2133,42.38503,-3.734942
"Castilla León","Burgos","Valle de Losa",496,42.98667,-3.219167
"Extremadura","Cáceres","Abadía",331,40.26001,-5.977147
"Extremadura","Cáceres","Abertura",368,39.24395,-5.814705
"Extremadura","Cáceres","Acebo",576,40.2028,-6.716342
"Extremadura","Cáceres","Acehúche",805,39.80257,-6.633866
"Extremadura","Cáceres","Aceituna",581,40.14967,-6.332445
"Extremadura","Cáceres","Ahigal",1349,40.1902,-6.185196
"Extremadura","Cáceres","Albalá",657,39.25652,-6.18479
"Extremadura","Cáceres","Alcántara",1347,39.71918,-6.886507
"Extremadura","Cáceres","Alcollarín",266,39.24476,-5.738991
"Extremadura","Cáceres","Alcuéscar",2454,39.18246,-6.228958
"Extremadura","Cáceres","Aldeacentenera",593,39.52736,-5.628981
"Extremadura","Cáceres","Aldea del Cano",600,39.28899,-6.318822
"Extremadura","Cáceres","La Aldea del Obispo",286,39.56373,-5.908606
"Extremadura","Cáceres","Aldeanueva de la Vera",1997,40.1274,-5.701673
"Extremadura","Cáceres","Aldeanueva del Camino",704,40.25998,-5.928072
"Extremadura","Cáceres","Aldehuela de Jerte",352,40.00964,-6.239311
"Extremadura","Cáceres","Alía",746,39.44883,-5.217654
